{"muni-001":{"centroid":{"lat":40.47322109772723,"lon":-3.6849180708624716},"points":[{"street":"Calle del Calvario","number":"15","postalCode":"28012","lat":40.4115441,"lon":-3.7023747},{"street":"Calle de Silvano","number":"77","postalCode":"28043","lat":40.4630376,"lon":-3.6376566},{"street":"Glorieta de Bilbao","number":"7","postalCode":"28004","lat":40.4287093,"lon":-3.701972},{"street":"Calle de Fuencarral","number":"95","postalCode":"28004","lat":40.4270276,"lon":-3.7016997},{"street":"Plaza de Santa Bárbara","number":"4","postalCode":"28004","lat":40.4276137,"lon":-3.6962892},{"street":"Calle del Pez","number":"10","postalCode":"28004","lat":40.4232134,"lon":-3.7045532},{"street":"Calle de la Luna","number":"17","postalCode":"28004","lat":40.4227875,"lon":-3.7068661},{"street":"Avenida de Monforte de Lemos","number":"36","postalCode":"28029","lat":40.480352,"lon":-3.7068876},{"street":"Calle de Ponferrada","number":"49","postalCode":"28029","lat":40.476063,"lon":-3.7127659},{"street":"Calle de Toledo","number":"53","postalCode":"28005","lat":40.4117047,"lon":-3.7079389},{"street":"Calle de Nuestra Señora de la Luz","number":"57","postalCode":"28047","lat":40.3865761,"lon":-3.7522395},{"street":"Calle del Ave María","number":"44","postalCode":"28012","lat":40.4097328,"lon":-3.7010866},{"street":"Calle de San Mateo","number":"28","postalCode":"28004","lat":40.4260312,"lon":-3.6981336},{"street":"Plaza de Cristino Martos","number":"2","postalCode":"28015","lat":40.4256477,"lon":-3.7122038},{"street":"Calle del Duque de Osuna","number":"6","postalCode":"28015","lat":40.42514,"lon":-3.7118533},{"street":"Calle de Campomanes","number":"4","postalCode":"28013","lat":40.4188562,"lon":-3.7093262},{"street":"Calle de Fernando VI","number":"6","postalCode":"28004","lat":40.4252476,"lon":-3.6963836},{"street":"Calle de Donoso Cortés","number":"90","postalCode":"28015","lat":40.4366465,"lon":-3.7163184},{"street":"Plaza del Comandante Las Morenas","number":"3","postalCode":"28013","lat":40.4162327,"lon":-3.7088498},{"street":"Calle de la Unión","number":"2","postalCode":"28013","lat":40.4167458,"lon":-3.7101814},{"street":"Calle de Melchor Fernández Almagro","number":"84","postalCode":"28029","lat":40.4754931,"lon":-3.7108592},{"street":"Avenida de Betanzos","number":"61","postalCode":"28029","lat":40.4784303,"lon":-3.7126596},{"street":"Calle de Melchor Fernández Almagro","number":"8","postalCode":"28029","lat":40.4779706,"lon":-3.6982537},{"street":"Calle de Ribadavia","number":"9","postalCode":"28029","lat":40.4723365,"lon":-3.7106687},{"street":"Plaza de Redondela","number":"3","postalCode":"28029","lat":40.476349,"lon":-3.7089677},{"street":"Plaza de la Cebada","number":"11","postalCode":"28005","lat":40.4116487,"lon":-3.7101786},{"street":"Calle de la Cava Baja","number":"42","postalCode":"28005","lat":40.4118381,"lon":-3.7105359},{"street":"Plaza del Humilladero","number":"4","postalCode":"28005","lat":40.4118652,"lon":-3.7106292},{"street":"Costanilla de San Andrés","number":"8","postalCode":"28005","lat":40.4131593,"lon":-3.7117469},{"street":"Calle de Ginzo de Limia","number":"23","postalCode":"28029","lat":40.4773454,"lon":-3.7039056},{"street":"Calle de La Bañeza","number":"3","postalCode":"28029","lat":40.4764767,"lon":-3.7120611},{"street":"Avenida de Brasil","number":"7","postalCode":"28020","lat":40.4547254,"lon":-3.6939836},{"street":"Calle de Bravo Murillo","number":"317","postalCode":"28020","lat":40.4634507,"lon":-3.6967219},{"street":"Calle de Matilde Landa","number":"7","postalCode":"28029","lat":40.4719534,"lon":-3.690935},{"street":"Calle de las Magnolias","number":"116","postalCode":"28029","lat":40.4734084,"lon":-3.6891428},{"street":"Calle de los Mártires de la Ventilla","number":"103","postalCode":"28029","lat":40.4716608,"lon":-3.6941494},{"street":"Calle de Isidro Fernández","number":"11","postalCode":"28034","lat":40.4844235,"lon":-3.6875356},{"street":"Calle de Virgen de Aránzazu","number":"11","postalCode":"28034","lat":40.4858413,"lon":-3.6905678},{"street":"Calle de San Modesto","number":"34","postalCode":"28034","lat":40.4855645,"lon":-3.6920333},{"street":"Calle de Virgen de Aránzazu","number":"31","postalCode":"28034","lat":40.4869313,"lon":-3.689688},{"street":"Calle de San Dacio","number":"23","postalCode":"28034","lat":40.485625,"lon":-3.6883678},{"street":"Calle Virgen de Aránzazu","number":"3","postalCode":"28034","lat":40.4854304,"lon":-3.6902918},{"street":"Calle del Conde de la Cimera","number":"2","postalCode":"28040","lat":40.4466867,"lon":-3.7144127},{"street":"Calle Beatriz de Bobadilla","number":"11","postalCode":"28040","lat":40.4480906,"lon":-3.7156961},{"street":"Calle de Juan Montalvo","number":"21","postalCode":"28040","lat":40.4471184,"lon":-3.7119678},{"street":"Calle de Melchor Fernández Almagro","number":"12","postalCode":"28029","lat":40.477954,"lon":-3.6988043},{"street":"Calle de Villa de Marín","number":"4","postalCode":"28029","lat":40.4759151,"lon":-3.6994592},{"street":"Calle del Doctor Esquerdo","number":"36","postalCode":"28009","lat":40.422598,"lon":-3.6691465},{"street":"Plaza de Padrón","number":"1","postalCode":"28029","lat":40.4766852,"lon":-3.7059758},{"street":"Calle de Atocha","number":"127","postalCode":"28012","lat":40.4096055,"lon":-3.6926831},{"street":"Paseo del Prado","number":"48","postalCode":"28014","lat":40.4098332,"lon":-3.6928352},{"street":"Calle de Atocha","number":"68","postalCode":"28012","lat":40.4115676,"lon":-3.6978097},{"street":"Calle de Fúcar","number":"20","postalCode":"28004","lat":40.4112109,"lon":-3.69567},{"street":"Calle de Fúcar","number":"10","postalCode":"28014","lat":40.4117497,"lon":-3.6956831},{"street":"Calle de Fúcar","number":"1","postalCode":"28004","lat":40.4125053,"lon":-3.695567},{"street":"Calle de Moratín","number":"49","postalCode":"28014","lat":40.4127079,"lon":-3.6943165},{"street":"Calle de la Alameda","number":"4","postalCode":"28014","lat":40.4122937,"lon":-3.6939658},{"street":"Calle de Atocha","number":"125","postalCode":"28004","lat":40.409774,"lon":-3.6932244},{"street":"Calle de Moratín","number":"40","postalCode":"28014","lat":40.4125537,"lon":-3.6951865},{"street":"Calle de Moratín","number":"42","postalCode":"28004","lat":40.4125743,"lon":-3.6949558},{"street":"Calle de las Huertas","number":"69","postalCode":"28014","lat":40.413178,"lon":-3.6957012},{"street":"Calle de Jesús","number":"2","postalCode":"28014","lat":40.4136254,"lon":-3.6956999},{"street":"Calle de Lope de Vega","number":"32","postalCode":"28014","lat":40.4136237,"lon":-3.6960696},{"street":"Plaza de Jesús","number":"4","postalCode":"28014","lat":40.4137383,"lon":-3.6957781},{"street":"Plaza de Jesús","number":"7","postalCode":"28014","lat":40.4141167,"lon":-3.6957942},{"street":"Plaza de las Cortes","number":"7","postalCode":"28014","lat":40.4154544,"lon":-3.6958024},{"street":"Plaza de las Cortes","number":"11","postalCode":"28014","lat":40.4159605,"lon":-3.6970951},{"street":"Plaza de las Cortes","number":"10","postalCode":"28014","lat":40.4157301,"lon":-3.6970821},{"street":"Calle de Jovellanos","number":"3","postalCode":"28014","lat":40.4173325,"lon":-3.6966034},{"street":"C. de Zorrilla","number":"9","postalCode":"28004","lat":40.416822,"lon":-3.6971908},{"street":"Paseo de Recoletos","number":"20-22","postalCode":"28071","lat":40.4237276,"lon":-3.6899043},{"street":"Glorieta de Embajadores","number":"3","postalCode":"28012","lat":40.4049613,"lon":-3.701739},{"street":"Calle de Embajadores","number":"55","postalCode":"28012","lat":40.4046885,"lon":-3.7019897},{"street":"Calle de Embajadores","number":"67","postalCode":"28012","lat":40.4036812,"lon":-3.7012155},{"street":"Calle de Embajadores","number":"69","postalCode":"28012","lat":40.4035399,"lon":-3.7011116},{"street":"Calle de Sebastián Herrera","number":"6","postalCode":"28012","lat":40.4037373,"lon":-3.6995978},{"street":"Calle de Bernardino Obregón","number":"18","postalCode":"28004","lat":40.4039372,"lon":-3.7000048},{"street":"Calle de José Antonio Armona","number":"12","postalCode":"28012","lat":40.4051914,"lon":-3.6973199},{"street":"Calle de las Delicias","number":"2","postalCode":"28045","lat":40.4041585,"lon":-3.6959215},{"street":"P.º de Sta. María de la Cabeza","number":"35","postalCode":"28045","lat":40.4038286,"lon":-3.6964406},{"street":"Calle Batalla del Salado","number":"1","postalCode":"28045","lat":40.4047334,"lon":-3.6956117},{"street":"Paseo de Santa María de la Cabeza","number":"27","postalCode":"28045","lat":40.4050712,"lon":-3.6952969},{"street":"Calle Mayor","number":"77","postalCode":"28013","lat":40.4151603,"lon":-3.7121513},{"street":"Calle Mayor","number":"74","postalCode":"28013","lat":40.4154876,"lon":-3.7111315},{"street":"Calle Mayor","number":"76","postalCode":"28013","lat":40.4154468,"lon":-3.7113407},{"street":"Calle Mayor","number":"80","postalCode":"28013","lat":40.4153818,"lon":-3.7117251},{"street":"Calle Mayor","number":"73","postalCode":"28013","lat":40.4152606,"lon":-3.7115508},{"street":"Calle Mayor","number":"68","postalCode":"28013","lat":40.4156653,"lon":-3.7102121},{"street":"Plaza de San Miguel","number":"8","postalCode":"28005","lat":40.4154788,"lon":-3.709488},{"street":"Calle de Santiago","number":"9","postalCode":"28013","lat":40.4163669,"lon":-3.7104348},{"street":"Calle de Santiago","number":"11","postalCode":"28013","lat":40.4164826,"lon":-3.7106873},{"street":"Costanilla de Santiago","number":"4","postalCode":"28013","lat":40.4162683,"lon":-3.7092754},{"street":"Calle del Arenal","number":"19","postalCode":"28013","lat":40.4177059,"lon":-3.7084882},{"street":"Pasadizo de San Ginés","number":"5","postalCode":"28013","lat":40.4167707,"lon":-3.706803},{"street":"Calle de Coloreros","number":"4","postalCode":"28013","lat":40.4166338,"lon":-3.7069412},{"street":"Calle Mayor","number":"13","postalCode":"28013","lat":40.4162754,"lon":-3.7062395},{"street":"Calle de Esparteros","number":"3","postalCode":"28012","lat":40.4160273,"lon":-3.7050598},{"street":"Calle del Arenal","number":"23","postalCode":"28013","lat":40.4177493,"lon":-3.7089054},{"street":"Calle de Caños del Peral","number":"3","postalCode":"28013","lat":40.4186369,"lon":-3.7090308},{"street":"Calle de Caños del Peral","number":"2","postalCode":"28013","lat":40.4185506,"lon":-3.7089327},{"street":"Calle de Caños del Peral","number":"7","postalCode":"28013","lat":40.4188918,"lon":-3.7086559},{"street":"Calle de las Veneras","number":"9","postalCode":"28013","lat":40.4195999,"lon":-3.7077336},{"street":"Costanilla de los Ángeles","number":"8","postalCode":"28013","lat":40.4186643,"lon":-3.7082433},{"street":"Calle Preciados","number":"37","postalCode":"28013","lat":40.4196853,"lon":-3.7074213},{"street":"Calle Preciados","number":"33","postalCode":"28013","lat":40.4196449,"lon":-3.7070086},{"street":"Plaza de San Martín","number":"5","postalCode":"28013","lat":40.4186548,"lon":-3.7066997},{"street":"Calle del Postigo de San Martín","number":"5","postalCode":"28013","lat":40.4190798,"lon":-3.7063377},{"street":"Calle del Carmen","number":"27","postalCode":"28013","lat":40.4187951,"lon":-3.704916},{"street":"Calle Preciados","number":"14","postalCode":"28013","lat":40.418129,"lon":-3.7046339},{"street":"Calle del Carmen","number":"4","postalCode":"28013","lat":40.4175269,"lon":-3.7035489},{"street":"Calle de Tetuán","number":"34","postalCode":"28013","lat":40.418183,"lon":-3.7031236},{"street":"Calle de la Salud","number":"3","postalCode":"28013","lat":40.4187423,"lon":-3.7039628},{"street":"Plaza del Carmen","number":"4","postalCode":"28013","lat":40.4189577,"lon":-3.7028511},{"street":"Calle de las Tres Cruces","number":"4","postalCode":"28013","lat":40.4192239,"lon":-3.7029032},{"street":"Calle de las Tres Cruces","number":"8","postalCode":"28004","lat":40.4195823,"lon":-3.7026244},{"street":"Calle de las Tres Cruces","number":"3","postalCode":"28013","lat":40.4192843,"lon":-3.7030373},{"street":"Calle de la Salud","number":"21","postalCode":"28013","lat":40.419776,"lon":-3.7031275},{"street":"Gran Vía","number":"29","postalCode":"28013","lat":40.4199471,"lon":-3.7032509},{"street":"Calle de la Salud","number":"13","postalCode":"28013","lat":40.4192518,"lon":-3.7034321},{"street":"Calle Abada","number":"8","postalCode":"28013","lat":40.4192335,"lon":-3.7043567},{"street":"Gran Vía","number":"38","postalCode":"28013","lat":40.420392,"lon":-3.7045921},{"street":"Gran Vía","number":"35","postalCode":"28013","lat":40.4200648,"lon":-3.7046245},{"street":"Gran Vía","number":"40","postalCode":"28013","lat":40.4204138,"lon":-3.7049789},{"street":"Plaza de Callao","number":"4","postalCode":"28013","lat":40.4200282,"lon":-3.7054691},{"street":"Gran Vía","number":"42","postalCode":"28013","lat":40.4204229,"lon":-3.7052026},{"street":"Calle Conrado del Campo","number":"5","postalCode":"28027","lat":40.4423822,"lon":-3.6371911},{"street":"Calle del Ave María","number":"17","postalCode":"28012","lat":40.4109653,"lon":-3.7004479},{"street":"Calle del Ave María","number":"15","postalCode":"28012","lat":40.4111374,"lon":-3.700326},{"street":"Calle del Ave María","number":"39","postalCode":"28012","lat":40.4096555,"lon":-3.7009094},{"street":"Calle del Ave María","number":"43","postalCode":"28012","lat":40.4094201,"lon":-3.7009059},{"street":"Calle de la Torrecilla del Leal","number":"3","postalCode":"28012","lat":40.4114924,"lon":-3.6994308},{"street":"Calle del Ave María","number":"8","postalCode":"28012","lat":40.4117492,"lon":-3.700322},{"street":"Calle de Julián Camarillo","number":"47","postalCode":"28037","lat":40.4367886,"lon":-3.6226101},{"street":"Avenida General","number":"49","postalCode":"28042","lat":40.4698335,"lon":-3.5807416},{"street":"Avenida de los Andes","number":"50","postalCode":"28042","lat":40.4563958,"lon":-3.6178172},{"street":"Avenida General","number":"43","postalCode":"28004","lat":40.4709687,"lon":-3.5799099},{"street":"Calle Telémaco","number":"8","postalCode":"28027","lat":40.4478236,"lon":-3.6444322},{"street":"Calle de Fernández Caro","number":"72","postalCode":"28027","lat":40.4460782,"lon":-3.6440234},{"street":"Calle de Alcalá","number":"446","postalCode":"28027","lat":40.4385381,"lon":-3.6350442},{"street":"Calle de los Hermanos García Noblejas","number":"7","postalCode":"28037","lat":40.4373015,"lon":-3.6373156},{"street":"Calle López de Aranda","number":"38","postalCode":"28004","lat":40.443889,"lon":-3.6345377},{"street":"Calle de Tumaco","number":"20","postalCode":"28027","lat":40.4454246,"lon":-3.6344015},{"street":"Calle de Antonio López","number":"8","postalCode":"28019","lat":40.3967179,"lon":-3.713911},{"street":"Calle de Serrano","number":"13","postalCode":"28001","lat":40.4234289,"lon":-3.6888894},{"street":"Calle Puente la Reina","number":"12","postalCode":"28050","lat":40.5021915,"lon":-3.676075},{"street":"Calle de Carmen Cobeña","number":"5","postalCode":"28005","lat":40.4006993,"lon":-3.7111777},{"street":"Plaza de Verín","number":"3","postalCode":"28029","lat":40.4778026,"lon":-3.7088661},{"street":"Calle del Padre Rubio","number":"43","postalCode":"28029","lat":40.4709234,"lon":-3.6938712},{"street":"Avenida de Europa","number":"27","postalCode":"28023","lat":40.4445042,"lon":-3.7866978},{"street":"Avenida del Talgo","number":"206","postalCode":"28023","lat":40.4479072,"lon":-3.7847271},{"street":"Avenida de Europa","number":"30","postalCode":"28023","lat":40.4453295,"lon":-3.7846899},{"street":"Calle de San Juan de Ortega","number":"68","postalCode":"28050","lat":40.5059026,"lon":-3.6757441},{"street":"Calle de Juan Hurtado de Mendoza","number":"11","postalCode":"28036","lat":40.4605707,"lon":-3.6872821},{"street":"Avenida de El Ferrol","number":"22","postalCode":"28029","lat":40.4743826,"lon":-3.7059131},{"street":"Avenida de El Ferrol","number":"25","postalCode":"28004","lat":40.4740954,"lon":-3.7054024},{"street":"Avenida de El Ferrol","number":"2","postalCode":"28029","lat":40.4747468,"lon":-3.7031802},{"street":"Avenida del Talgo","number":"70","postalCode":"28023","lat":40.447356,"lon":-3.7799963},{"street":"Avenida del Talgo","number":"72","postalCode":"28023","lat":40.4475246,"lon":-3.7801186},{"street":"Avenida de El Ferrol","number":"32","postalCode":"28029","lat":40.4743767,"lon":-3.7067515},{"street":"Calle de Grañón","number":"5","postalCode":"28050","lat":40.5059616,"lon":-3.6752771},{"street":"Calle de Ages","number":"2","postalCode":"28050","lat":40.5050839,"lon":-3.6719063},{"street":"Avenida de los Poblados","number":"58","postalCode":"28044","lat":40.3863802,"lon":-3.7643136},{"street":"Calle del Avefría","number":"20","postalCode":"28025","lat":40.3842185,"lon":-3.7300339},{"street":"Calle de Villavaliente","number":"29","postalCode":"28011","lat":40.4075213,"lon":-3.7501124},{"street":"Avenida Séptima","number":"12","postalCode":"28022","lat":40.4472065,"lon":-3.5981296},{"street":"Avenida de la Peseta","number":"22","postalCode":"28025","lat":40.3628619,"lon":-3.7622051},{"street":"Avenida de Badajoz","number":"74","postalCode":"28027","lat":40.443436,"lon":-3.6508507},{"street":"Calle de las Peñuelas","number":"31","postalCode":"28005","lat":40.4021177,"lon":-3.7031018},{"street":"Calle de Serrano","number":"127","postalCode":"28006","lat":40.4423487,"lon":-3.6874627},{"street":"Calle de la Princesa","number":"19","postalCode":"28008","lat":40.4262288,"lon":-3.7134168},{"street":"Calle de Dolores Barranco","number":"65","postalCode":"28026","lat":40.3827694,"lon":-3.7093833},{"street":"Calle de Antonio Moreno","number":"25","postalCode":"28025","lat":40.3849226,"lon":-3.7257724},{"street":"Paseo de la Alameda de Osuna","number":"17","postalCode":"28042","lat":40.455138,"lon":-3.5941147},{"street":"Calle de Bristol","number":"1","postalCode":"28028","lat":40.4391175,"lon":-3.6625525},{"street":"Plaza de las Comendadoras","number":"10","postalCode":"28015","lat":40.4274181,"lon":-3.7089933},{"street":"Calle de José de Cadalso","number":"50","postalCode":"28044","lat":40.3802565,"lon":-3.7726641},{"street":"Calle del Sáhara","number":"79","postalCode":"28041","lat":40.3549461,"lon":-3.6918802},{"street":"Calle de Bravo Murillo","number":"297","postalCode":"28020","lat":40.4620328,"lon":-3.6987685},{"street":"Calle de la Costa Brava","number":"4","postalCode":"28034","lat":40.4972833,"lon":-3.7029033},{"street":"Calle del Darro","number":"30","postalCode":"28002","lat":40.450838,"lon":-3.6857573},{"street":"Calle de la Madre de Dios","number":"40","postalCode":"28016","lat":40.4647211,"lon":-3.6726578},{"street":"Calle de San Bernardo","number":"99","postalCode":"28015","lat":40.4308428,"lon":-3.7060322},{"street":"Calle de Alcalá","number":"589","postalCode":"28022","lat":40.4459524,"lon":-3.6140021},{"street":"Calle del Butrón","number":"33","postalCode":"28022","lat":40.4269984,"lon":-3.6072162},{"street":"Calle de Ángel Múgica","number":"48","postalCode":"28034","lat":40.4870159,"lon":-3.6885649},{"street":"Calle de Alcalá","number":"337","postalCode":"28027","lat":40.4335241,"lon":-3.6477394},{"street":"Calle de Alcalá","number":"587","postalCode":"28022","lat":40.4456264,"lon":-3.6143057},{"street":"Paseo de Santa María de la Cabeza","number":"85","postalCode":"28045","lat":40.3975606,"lon":-3.7020249},{"street":"Calle de Bravo Murillo","number":"150","postalCode":"28020","lat":40.4507065,"lon":-3.7032159},{"street":"Calle Alfonso Rodríguez Santamaría","number":"23","postalCode":"28002","lat":40.4498579,"lon":-3.6854407},{"street":"Calle del Abolengo","number":"10","postalCode":"28025","lat":40.3891325,"lon":-3.7363478},{"street":"Calle del Pinar de San José","number":"21","postalCode":"28044","lat":40.3630969,"lon":-3.7749985},{"street":"Calle Alfonso Martínez Conde","number":"4","postalCode":"28025","lat":40.3806883,"lon":-3.7296944},{"street":"Calle de Florencio Sanz","number":"1","postalCode":"28025","lat":40.3880584,"lon":-3.7417133},{"street":"Calle de Gómez de Arteche","number":"28","postalCode":"28044","lat":40.3691743,"lon":-3.7564839},{"street":"Calle de San Germán","number":"5","postalCode":"28020","lat":40.4559471,"lon":-3.692985},{"street":"Calle de Luis de la Mata","number":"24","postalCode":"28042","lat":40.4541697,"lon":-3.6137583},{"street":"Calle de Rodríguez Marín","number":"46","postalCode":"28002","lat":40.4466061,"lon":-3.6802667},{"street":"Calle de la Época","number":"3","postalCode":"28025","lat":40.3785709,"lon":-3.7467054},{"street":"Calle del Carril del Conde","number":"47","postalCode":"28043","lat":40.4600803,"lon":-3.6547379},{"street":"Calle de Vizconde de Uzquieta","number":"23","postalCode":"28042","lat":40.4532614,"lon":-3.6113927},{"street":"Calle de Zigia","number":"1","postalCode":"28027","lat":40.438428,"lon":-3.6458623},{"street":"Calle de Arturo Soria","number":"278","postalCode":"28033","lat":40.4712848,"lon":-3.6669014},{"street":"Calle de Zaida","number":"87","postalCode":"28019","lat":40.3925091,"lon":-3.7355487},{"street":"Paseo de Gigantes y Cabezudos","number":"12","postalCode":"28041","lat":40.3596648,"lon":-3.6940268},{"street":"Calle de Francisco Madariaga","number":"11","postalCode":"28017","lat":40.4351468,"lon":-3.6413508},{"street":"Calle de Ocaña","number":"191","postalCode":"28047","lat":40.3893443,"lon":-3.7538461},{"street":"Calle de Monseñor Óscar Romero","number":"54","postalCode":"28025","lat":40.3821654,"lon":-3.7453196},{"street":"Calle de Emilio Gastesi Fernández","number":"46","postalCode":"28027","lat":40.4372118,"lon":-3.6480012},{"street":"Calle de Martínez Izquierdo","number":"8","postalCode":"28028","lat":40.4325726,"lon":-3.6711536},{"street":"Calle de Villardondiego","number":"15","postalCode":"28032","lat":40.4072044,"lon":-3.6081327},{"street":"Calle de Valverde","number":"15","postalCode":"28004","lat":40.4215066,"lon":-3.7021039},{"street":"Calle de Nápoles","number":"28","postalCode":"28043","lat":40.4596414,"lon":-3.6503592},{"street":"Avenida de Portugal","number":"67","postalCode":"28011","lat":40.414614,"lon":-3.7285043},{"street":"Calle de Elvas","number":"2","postalCode":"28025","lat":40.38513,"lon":-3.7253361},{"street":"Calle de la Estafeta","number":"17","postalCode":"28041","lat":40.3727453,"lon":-3.6921875},{"street":"Calle de Pan y Toros","number":"45","postalCode":"28041","lat":40.3570121,"lon":-3.694003},{"street":"Travesía de Iván de Vargas","number":"1","postalCode":"28019","lat":40.40237,"lon":-3.7239089},{"street":"Calle Puerto de Pajares","number":"6","postalCode":"28053","lat":40.3953054,"lon":-3.6645157},{"street":"Calle Rosario Acuña","number":"13","postalCode":"28028","lat":40.4240493,"lon":-3.6621031},{"street":"Calle Antonio Durán Tovar","number":"6","postalCode":"28053","lat":40.3915052,"lon":-3.6623803},{"street":"Calle de Serrano","number":"158","postalCode":"28002","lat":40.4457699,"lon":-3.685059},{"street":"Calle del Balandro","number":"28","postalCode":"28042","lat":40.4530898,"lon":-3.5916123},{"street":"Calle José Celestino Mutis","number":"38","postalCode":"28028","lat":40.4230978,"lon":-3.663176},{"street":"Calle de Serrano","number":"194","postalCode":"28002","lat":40.4497314,"lon":-3.6824442},{"street":"Calle de Rodríguez Marín","number":"32","postalCode":"28002","lat":40.4458753,"lon":-3.6809785},{"street":"Calle del Vizconde de Matamala","number":"1","postalCode":"28028","lat":40.4265814,"lon":-3.664748},{"street":"Calle del Elfo","number":"74","postalCode":"28027","lat":40.4340867,"lon":-3.6489097},{"street":"Calle de Mercedes Fórmica","number":"34","postalCode":"28028","lat":40.4218935,"lon":-3.6644886},{"street":"Calle Antonio Vicent","number":"62","postalCode":"28019","lat":40.394305,"lon":-3.7102697},{"street":"Calle de Fray José Cerdeiriña","number":"51","postalCode":"28024","lat":40.3837547,"lon":-3.7789832},{"street":"Calle de Ricardo Ortiz","number":"114","postalCode":"28017","lat":40.4230314,"lon":-3.657173},{"street":"Gran Vía","number":"63","postalCode":"28013","lat":40.4224323,"lon":-3.7098461},{"street":"Plaza de la Madre María Ana Mogas","number":"12","postalCode":"28034","lat":40.4943477,"lon":-3.6891964},{"street":"Calle del Palmípedo","number":"12","postalCode":"28047","lat":40.4038146,"lon":-3.7462856},{"street":"Calle de Alberto Aguilera","number":"8","postalCode":"28015","lat":40.4298609,"lon":-3.7069054},{"street":"Calle de Gaztambide","number":"91","postalCode":"28003","lat":40.4410303,"lon":-3.7165381},{"street":"Calle de Aldeanueva de la Vera","number":"9","postalCode":"28044","lat":40.3804575,"lon":-3.7762829},{"street":"Avenida de Carabanchel Alto","number":"17","postalCode":"28044","lat":40.3689252,"lon":-3.7525477},{"street":"Calle del Bergantín","number":"13","postalCode":"28042","lat":40.4590033,"lon":-3.5849421},{"street":"Carrera de San Francisco","number":"11","postalCode":"28005","lat":40.4107469,"lon":-3.7129528},{"street":"Calle de Fuencarral","number":"105","postalCode":"28004","lat":40.4284328,"lon":-3.7023644},{"street":"Calle de Génova","number":"14","postalCode":"28004","lat":40.426749,"lon":-3.6943198},{"street":"Calle de San Mateo","number":"15","postalCode":"28004","lat":40.4259839,"lon":-3.698532},{"street":"Calle de Manuel Aguilar Muñoz","number":"1","postalCode":"28042","lat":40.4605125,"lon":-3.5911118},{"street":"Calle de Núñez de Balboa","number":"10","postalCode":"28001","lat":40.4227116,"lon":-3.6828789},{"street":"Calle de Fernando el Católico","number":"77","postalCode":"28015","lat":40.4341776,"lon":-3.7175148},{"street":"Gran Vía","number":"59","postalCode":"28013","lat":40.4219785,"lon":-3.7091246},{"street":"Gran Vía","number":"76","postalCode":"28015","lat":40.4232128,"lon":-3.7100844},{"street":"Calle Estrecho de Gibraltar","number":"27","postalCode":"28027","lat":40.4371671,"lon":-3.6409337},{"street":"Callejón del Dómine","number":"6","postalCode":"28034","lat":40.4942106,"lon":-3.686481},{"street":"Calle Tajo","number":"6","postalCode":"28002","lat":40.4485677,"lon":-3.6827155},{"street":"Calle de Villaviciosa","number":"24","postalCode":"28024","lat":40.3977434,"lon":-3.7698471},{"street":"Plaza de Santa Ana","number":"13","postalCode":"28012","lat":40.4143134,"lon":-3.7012985},{"street":"Paseo de La Habana","number":"208","postalCode":"28036","lat":40.4665254,"lon":-3.679087},{"street":"Ronda de Don Bosco","number":"3","postalCode":"28044","lat":40.3745662,"lon":-3.7528567},{"street":"Calle Carrero Juan Ramón","number":"2","postalCode":"28025","lat":40.3791298,"lon":-3.728264},{"street":"Calle de Villamanín","number":"29","postalCode":"28011","lat":40.4070118,"lon":-3.7518892},{"street":"Calle Mayor","number":"49","postalCode":"28013","lat":40.4157649,"lon":-3.7091042},{"street":"Calle de Cullera","number":"17","postalCode":"28047","lat":40.3963134,"lon":-3.7474666},{"street":"Calle del Corregidor José de Pasamonte","number":"5","postalCode":"28030","lat":40.4105917,"lon":-3.6492267},{"street":"Calle de Juan Bravo","number":"51","postalCode":"28006","lat":40.4325989,"lon":-3.6759404},{"street":"Calle del Pingüino","number":"7","postalCode":"28047","lat":40.3789296,"lon":-3.7507826},{"street":"Calle de San Anastasio","number":"4","postalCode":"28005","lat":40.3972382,"lon":-3.7033722},{"street":"Calle de Ferrer del Río","number":"26","postalCode":"28028","lat":40.4350174,"lon":-3.6711865},{"street":"Plaza del Doctor Laguna","number":"5","postalCode":"28009","lat":40.4155186,"lon":-3.6726772},{"street":"Calle del Duque de Alba","number":"15","postalCode":"28012","lat":40.4115325,"lon":-3.7067618},{"street":"Plaza del Navío","number":"1","postalCode":"28042","lat":40.4558317,"lon":-3.5885942},{"street":"Calle de Cáceres","number":"50","postalCode":"28045","lat":40.3990263,"lon":-3.699962},{"street":"Calle de Vicente Aleixandre","number":"6","postalCode":"28003","lat":40.4458861,"lon":-3.717981},{"street":"Calle de Ricardo Ortiz","number":"29","postalCode":"28017","lat":40.4274073,"lon":-3.6579234},{"street":"Calle de Quintiliano","number":"3","postalCode":"28002","lat":40.4417984,"lon":-3.6766629},{"street":"Calle de Agustín de Betancourt","number":"1","postalCode":"28003","lat":40.441934,"lon":-3.6952191},{"street":"Calle del Corregidor Alonso de Tobar","number":"7","postalCode":"28030","lat":40.403818,"lon":-3.6496481},{"street":"Calle del Camino de los Vinateros","number":"51","postalCode":"28030","lat":40.4108741,"lon":-3.6538638},{"street":"Calle de Parma","number":"16","postalCode":"28043","lat":40.4560206,"lon":-3.6493561},{"street":"Calle Alonso Saavedra","number":"20","postalCode":"28033","lat":40.4702083,"lon":-3.6638364},{"street":"Calle de Peña del Sol","number":"22","postalCode":"28034","lat":40.4898707,"lon":-3.7026257},{"street":"Calle de Rodríguez Marín","number":"7","postalCode":"28002","lat":40.4456314,"lon":-3.6818229},{"street":"Calle de Ayala","number":"109","postalCode":"28009","lat":40.4271234,"lon":-3.6699409},{"street":"Calle de Aleixandre","number":"5","postalCode":"28033","lat":40.4638727,"lon":-3.663684},{"street":"Calle de Fernando el Católico","number":"61","postalCode":"28015","lat":40.4341757,"lon":-3.7149093},{"street":"Calle de Nuestra Señora del Perpetuo Socorro","number":"23","postalCode":"28053","lat":40.3928289,"lon":-3.662711},{"street":"Calle de la Macarena","number":"37","postalCode":"28016","lat":40.4617099,"lon":-3.6768545},{"street":"Calle de Alenza","number":"28","postalCode":"28003","lat":40.4456395,"lon":-3.7002434},{"street":"Calle de Antonio Sancha","number":"11","postalCode":"28042","lat":40.4603155,"lon":-3.589105},{"street":"Calle de la Fragata","number":"33","postalCode":"28019","lat":40.3940299,"lon":-3.7368841},{"street":"Calle de Maqueda","number":"130","postalCode":"28024","lat":40.3890501,"lon":-3.7624389},{"street":"Calle de los Yébenes","number":"69","postalCode":"28047","lat":40.3943263,"lon":-3.7523662},{"street":"Calle de José Ortega y Gasset","number":"87","postalCode":"28006","lat":40.4298593,"lon":-3.6712953},{"street":"Calle del Tántalo","number":"21","postalCode":"28021","lat":40.3529246,"lon":-3.6805743},{"street":"Calle de Maqueda","number":"8","postalCode":"28024","lat":40.3942741,"lon":-3.7655713},{"street":"Calle de Andrés Torrejón","number":"18","postalCode":"28014","lat":40.4078303,"lon":-3.6820848},{"street":"Calle de Carretas","number":"14","postalCode":"28012","lat":40.4148943,"lon":-3.7035557},{"street":"Calle de la Plata","number":"6","postalCode":"28021","lat":40.3481158,"lon":-3.7073252},{"street":"Calle de Afueras a Valverde","number":"19","postalCode":"28034","lat":40.4973066,"lon":-3.6885068},{"street":"Calle del Doce de Octubre","number":"24","postalCode":"28009","lat":40.4152588,"lon":-3.6752577},{"street":"Avenida del Cardenal Herrera Oria","number":"338","postalCode":"28035","lat":40.4770912,"lon":-3.7325401},{"street":"Calle de Tomás Bretón","number":"43","postalCode":"28045","lat":40.397388,"lon":-3.6923674},{"street":"Calle de González Arias","number":"10","postalCode":"28026","lat":40.3808099,"lon":-3.708656},{"street":"Avenida de Badajoz","number":"76","postalCode":"28027","lat":40.4435394,"lon":-3.6500734},{"street":"Calle de Atocha","number":"93","postalCode":"28014","lat":40.4111037,"lon":-3.6963686},{"street":"Avenida de Moratalaz","number":"141","postalCode":"28030","lat":40.4071037,"lon":-3.6485396},{"street":"Plaza de San Vicente de Paúl","number":"1","postalCode":"28025","lat":40.3850034,"lon":-3.7260154},{"street":"Calle de Calderón","number":"2","postalCode":"28042","lat":40.470602,"lon":-3.5840634},{"street":"Calle del Vivero","number":"4","postalCode":"28040","lat":40.4484635,"lon":-3.7105204},{"street":"Calle de Valdesquí","number":"4","postalCode":"28023","lat":40.4658883,"lon":-3.7709573},{"street":"Calle de Claudio Coello","number":"48","postalCode":"28001","lat":40.4271337,"lon":-3.6862022},{"street":"Calle de San Bernardo","number":"44","postalCode":"28015","lat":40.4244706,"lon":-3.707302},{"street":"Calle de Tenerife","number":"11","postalCode":"28039","lat":40.449834,"lon":-3.7059121},{"street":"Plaza de Mondariz","number":"14","postalCode":"28029","lat":40.4784006,"lon":-3.7059276},{"street":"Calle de los Montes de Barbanza","number":"19","postalCode":"28031","lat":40.3772231,"lon":-3.6192572},{"street":"Calle Asura","number":"134","postalCode":"28043","lat":40.4605049,"lon":-3.6577024},{"street":"Calle de Tutor","number":"52","postalCode":"28008","lat":40.4310041,"lon":-3.7179055},{"street":"Calle de Canillas","number":"50","postalCode":"28002","lat":40.4429004,"lon":-3.6736262},{"street":"Calle de Fernando Ortiz","number":"2","postalCode":"28026","lat":40.3678875,"lon":-3.7027826},{"street":"Calle de O'Donnell","number":"49","postalCode":"28009","lat":40.419323,"lon":-3.6713004},{"street":"Carretera de Canillas","number":"43","postalCode":"28043","lat":40.4633849,"lon":-3.647009},{"street":"Calle de Escalona","number":"61","postalCode":"28024","lat":40.396381,"lon":-3.7619841},{"street":"Calle de Alicia Baena","number":"19","postalCode":"28035","lat":40.4804481,"lon":-3.7267675},{"street":"Calle del Bismuto","number":"1","postalCode":"28021","lat":40.3438685,"lon":-3.7057673},{"street":"Calle del Marqués de Lema","number":"7","postalCode":"28003","lat":40.4456104,"lon":-3.706672},{"street":"Calle Vieja de Pinto","number":"15","postalCode":"28021","lat":40.3475234,"lon":-3.708723},{"street":"Calle del Marqués de Cubas","number":"15","postalCode":"28014","lat":40.4170421,"lon":-3.6954101},{"street":"Calle de Francisco Silvela","number":"7","postalCode":"28028","lat":40.4289701,"lon":-3.6698896},{"street":"Calle de Cestona","number":"5","postalCode":"28041","lat":40.3728746,"lon":-3.7138377},{"street":"Calle Arenas de Iguña","number":"1","postalCode":"28038","lat":40.3919789,"lon":-3.6472591},{"street":"Calle de Verdaguer y García","number":"2","postalCode":"28027","lat":40.4393997,"lon":-3.6563957},{"street":"Calle Isla Malaita","number":"2","postalCode":"28035","lat":40.4729967,"lon":-3.7218959},{"street":"Calle de Amaniel","number":"2","postalCode":"28015","lat":40.4249909,"lon":-3.7090304},{"street":"Calle de Portalegre","number":"52","postalCode":"28019","lat":40.3882038,"lon":-3.7250262},{"street":"Calle de Adela Balboa","number":"16","postalCode":"28039","lat":40.4482889,"lon":-3.707176},{"street":"Calle del Porvenir","number":"9","postalCode":"28028","lat":40.4243684,"lon":-3.6659916},{"street":"Calle del Genil","number":"13","postalCode":"28002","lat":40.4492044,"lon":-3.6809525},{"street":"Calle de Alcalá","number":"126","postalCode":"28009","lat":40.4264795,"lon":-3.6717062},{"street":"Calle de Abtao","number":"46","postalCode":"28007","lat":40.4063842,"lon":-3.6742291},{"street":"Calle de Jacobinia","number":"74","postalCode":"28047","lat":40.3779132,"lon":-3.7536718},{"street":"Calle de Benita Ávila","number":"23","postalCode":"28043","lat":40.4651337,"lon":-3.6508167},{"street":"Calle de las Hijas de Jesús","number":"30","postalCode":"28026","lat":40.3842671,"lon":-3.7016118},{"street":"Calle de Pradales","number":"8","postalCode":"28047","lat":40.4030559,"lon":-3.7482599},{"street":"Calle de Benimamet","number":"109","postalCode":"28021","lat":40.3443823,"lon":-3.684753},{"street":"Calle Belorado","number":"1","postalCode":"28034","lat":40.4880852,"lon":-3.6848848},{"street":"Plaza Roger de Flor","number":"18","postalCode":"28019","lat":40.3936967,"lon":-3.7326034},{"street":"Calle de Fernández de los Ríos","number":"42","postalCode":"28015","lat":40.4354905,"lon":-3.7091922},{"street":"Calle de José Arcones Gil","number":"13","postalCode":"28017","lat":40.4362587,"lon":-3.6385389},{"street":"Calle de López de Hoyos","number":"386","postalCode":"28043","lat":40.4612031,"lon":-3.6584876},{"street":"Calle del Camino Viejo de Leganés","number":"188","postalCode":"28025","lat":40.3771653,"lon":-3.7345139},{"street":"Calle de Braille","number":"10","postalCode":"28034","lat":40.4958979,"lon":-3.6936021},{"street":"Calle de Albaicín","number":"1","postalCode":"28041","lat":40.3681492,"lon":-3.701622},{"street":"Calle de Alicante","number":"5","postalCode":"28045","lat":40.3943159,"lon":-3.6935148},{"street":"Calle de las Musas","number":"11","postalCode":"28022","lat":40.4373479,"lon":-3.6082446},{"street":"Calle de Cuart de Poblet","number":"6","postalCode":"28047","lat":40.3971227,"lon":-3.7518825},{"street":"Calle del Pisuerga","number":"9","postalCode":"28002","lat":40.4493364,"lon":-3.6837492},{"street":"Plaza de la Moncloa","number":"1","postalCode":"28008","lat":40.4349752,"lon":-3.7186348},{"street":"Calle de Méndez Álvaro","number":"2","postalCode":"28045","lat":40.4068951,"lon":-3.6929957},{"street":"Calle de la Salle","number":"23","postalCode":"28023","lat":40.4665952,"lon":-3.779584},{"street":"Calle de María Lombillo","number":"5","postalCode":"28027","lat":40.443705,"lon":-3.6381186},{"street":"Calle del Padre Amigó","number":"2","postalCode":"28005","lat":40.3790035,"lon":-3.7373116},{"street":"Avenida de la Guardia","number":"19","postalCode":"28048","lat":40.5171311,"lon":-3.7743983},{"street":"Calle de Anselmo Lorenzo","number":"12","postalCode":"28044","lat":40.3820024,"lon":-3.7706532},{"street":"Avenida de Oporto","number":"46","postalCode":"28019","lat":40.3862315,"lon":-3.7249473},{"street":"Calle de los Hermanos García Noblejas","number":"70","postalCode":"28037","lat":40.4292596,"lon":-3.6323355},{"street":"Calle de Motilla del Palancar","number":"36","postalCode":"28043","lat":40.4661103,"lon":-3.6310724},{"street":"Calle de Tabernillas","number":"4","postalCode":"28005","lat":40.4106956,"lon":-3.7116612},{"street":"Calle Condes de Torreanaz","number":"3","postalCode":"28028","lat":40.4218334,"lon":-3.6684961},{"street":"Calle del Estrecho de Corea","number":"34","postalCode":"28027","lat":40.4410373,"lon":-3.6476632},{"street":"Calle de Valdebernardo","number":"3","postalCode":"28030","lat":40.3983828,"lon":-3.6333084},{"street":"Calle Ruperto Andrés","number":"6","postalCode":"28035","lat":40.467202,"lon":-3.7236953},{"street":"Calle de Geranios","number":"30","postalCode":"28029","lat":40.4720527,"lon":-3.6934633},{"street":"Calle de la Estafeta","number":"33","postalCode":"28041","lat":40.3716401,"lon":-3.692058},{"street":"Calle Plus Ultra","number":"3","postalCode":"28042","lat":40.4716708,"lon":-3.5853696},{"street":"Calle del General Ricardos","number":"179","postalCode":"28025","lat":40.3836216,"lon":-3.7404659},{"street":"Calle de Adonis","number":"1","postalCode":"28024","lat":40.386527,"lon":-3.7739609},{"street":"Calle de Béjar","number":"29","postalCode":"28028","lat":40.4370892,"lon":-3.6720933},{"street":"Calle del Doctor Martín Arévalo","number":"2","postalCode":"28021","lat":40.3463322,"lon":-3.7084712},{"street":"Calle de Arcos de Jalón","number":"20","postalCode":"28037","lat":40.4194809,"lon":-3.6220676},{"street":"Calle de Joaquín Ibarra","number":"28","postalCode":"28042","lat":40.4570523,"lon":-3.5944929},{"street":"Camino Viejo de Vicálvaro","number":"20","postalCode":"28032","lat":40.404783,"lon":-3.615526},{"street":"Calle de Lagasca","number":"65","postalCode":"28001","lat":40.4284363,"lon":-3.6852236},{"street":"Ronda de la Abubilla","number":"18","postalCode":"28043","lat":40.4521719,"lon":-3.6334342},{"street":"Calle de Viriato","number":"52","postalCode":"28010","lat":40.4354795,"lon":-3.6974754},{"street":"Avenida de Alfonso XIII","number":"74","postalCode":"28016","lat":40.4545521,"lon":-3.6668078},{"street":"Calle de Alejandro Villegas","number":"48","postalCode":"28043","lat":40.4665324,"lon":-3.6490202},{"street":"Avenida de Burgos","number":"12","postalCode":"28036","lat":40.4739798,"lon":-3.6757512},{"street":"Paseo de Extremadura","number":"33","postalCode":"28011","lat":40.4133561,"lon":-3.7288},{"street":"Paseo de Santa María de la Cabeza","number":"58","postalCode":"28012","lat":40.4018515,"lon":-3.6987654},{"street":"Calle de Juan Álvarez Mendizábal","number":"20","postalCode":"28008","lat":40.424745,"lon":-3.7146664},{"street":"Calle de la Batalla del Salado","number":"29","postalCode":"28045","lat":40.4006138,"lon":-3.6960556},{"street":"Calle de Antonio Vico","number":"8","postalCode":"28019","lat":40.3972135,"lon":-3.7192153},{"street":"Calle de la Palma","number":"35","postalCode":"28004","lat":40.4263454,"lon":-3.7045338},{"street":"Calle Cifuentes","number":"12","postalCode":"28021","lat":40.3492002,"lon":-3.6989746},{"street":"Calle de Inglaterra","number":"8","postalCode":"28019","lat":40.3946793,"lon":-3.7235098},{"street":"Calle de los Yébenes","number":"6","postalCode":"28047","lat":40.3968693,"lon":-3.7559035},{"street":"Calle del Mar Caspio","number":"6","postalCode":"28033","lat":40.4732282,"lon":-3.6464796},{"street":"Calle Amposta","number":"34","postalCode":"28037","lat":40.4227266,"lon":-3.6192962},{"street":"Calle de Menéndez Pidal","number":"173","postalCode":"28036","lat":40.4657009,"lon":-3.6798926},{"street":"Calle de Nuestra Señora de Araceli","number":"2","postalCode":"28042","lat":40.4714578,"lon":-3.5786799},{"street":"Calle Pedro Salinas","number":"11","postalCode":"28043","lat":40.457647,"lon":-3.6621188},{"street":"Calle del Poeta Blas de Otero","number":"38","postalCode":"28017","lat":40.4219207,"lon":-3.6514873},{"street":"Calle de la Virgen de Lluc","number":"13","postalCode":"28027","lat":40.4363288,"lon":-3.647407},{"street":"Calle de las Islas Aleutianas","number":"28","postalCode":"28035","lat":40.4776141,"lon":-3.7286299},{"street":"Calle del Padre Amigó","number":"5","postalCode":"28025","lat":40.3786949,"lon":-3.7384439},{"street":"Calle Aránzazu","number":"4","postalCode":"28043","lat":40.4691276,"lon":-3.6510863},{"street":"Calle de Gregorio Ortiz","number":"19","postalCode":"28021","lat":40.3442835,"lon":-3.7088484},{"street":"Calle de Antonio Cumella","number":"7","postalCode":"28030","lat":40.4100165,"lon":-3.6369918},{"street":"Calle de Tomelloso","number":"39","postalCode":"28026","lat":40.3803439,"lon":-3.6974005},{"street":"Calle de las Clarisas","number":"16","postalCode":"28019","lat":40.3898138,"lon":-3.7268943},{"street":"Calle Toscana","number":"156","postalCode":"28032","lat":40.4189884,"lon":-3.6117072},{"street":"Calle de Evaristo San Miguel","number":"11","postalCode":"28008","lat":40.4262782,"lon":-3.7158514},{"street":"Calle de la Poeta Ángela Figuera","number":"37","postalCode":"28003","lat":40.44511,"lon":-3.7185829},{"street":"Calle Pico Balaitus","number":"24","postalCode":"28035","lat":40.4832131,"lon":-3.720462},{"street":"Calle Ramón Patuel","number":"10","postalCode":"28017","lat":40.428147,"lon":-3.6562961},{"street":"Calle de Florencio García","number":"12","postalCode":"28027","lat":40.4385117,"lon":-3.6404743},{"street":"Bulevar de José Prat","number":"5","postalCode":"28032","lat":40.3984878,"lon":-3.6245263},{"street":"Calle del Marqués de Portugalete","number":"8","postalCode":"28027","lat":40.4459158,"lon":-3.6455801},{"street":"Avenida de Canillejas a Vicálvaro","number":"82","postalCode":"28022","lat":40.4236253,"lon":-3.6129154},{"street":"Paseo Imperial","number":"91","postalCode":"28005","lat":40.4023142,"lon":-3.7146965},{"street":"Paseo de las Acacias","number":"29","postalCode":"28005","lat":40.4033042,"lon":-3.7081487},{"street":"Calle de los Pirineos","number":"55","postalCode":"28040","lat":40.4533223,"lon":-3.7187131},{"street":"Calle del Corregidor Juan Francisco de Luján","number":"21","postalCode":"28030","lat":40.4029325,"lon":-3.6481668},{"street":"Calle de Peña Pintada","number":"13","postalCode":"28034","lat":40.4918947,"lon":-3.7031069},{"street":"Avenida de los Fueros","number":"34","postalCode":"28041","lat":40.3701865,"lon":-3.6895579},{"street":"Calle de Chile","number":"14","postalCode":"28016","lat":40.4562393,"lon":-3.6756159},{"street":"Calle del Doctor Esquerdo","number":"160","postalCode":"28007","lat":40.403064,"lon":-3.6735361},{"street":"Avenida de Burgos","number":"34","postalCode":"28036","lat":40.4799317,"lon":-3.6746775},{"street":"Calle de Pandora","number":"23","postalCode":"28037","lat":40.4398771,"lon":-3.6157483},{"street":"Avenida de Alfonso XIII","number":"162","postalCode":"28016","lat":40.4604702,"lon":-3.6741631},{"street":"Calle de Húmera","number":"37","postalCode":"28023","lat":40.4494617,"lon":-3.7820985},{"street":"Plaza del Doctor Laguna","number":"6","postalCode":"28009","lat":40.4156031,"lon":-3.6721875},{"street":"Calle de Ramón de Aguinaga","number":"15","postalCode":"28028","lat":40.4268557,"lon":-3.6624008},{"street":"Calle de Fermín Caballero","number":"53","postalCode":"28034","lat":40.4829902,"lon":-3.7080303},{"street":"Avenida de la Virgen del Carmen","number":"32","postalCode":"28033","lat":40.4743223,"lon":-3.6524378},{"street":"Calle de Armenteros","number":"46","postalCode":"28039","lat":40.464846,"lon":-3.7133221},{"street":"Calle de Gaztambide","number":"65","postalCode":"28015","lat":40.4373652,"lon":-3.7154613},{"street":"Costanilla de los Ángeles","number":"16","postalCode":"28013","lat":40.4193473,"lon":-3.7080096},{"street":"Calle de la Marroquina","number":"45","postalCode":"28030","lat":40.4083963,"lon":-3.6484277},{"street":"Calle de Albuñuelas","number":"13","postalCode":"28041","lat":40.3659466,"lon":-3.6980419},{"street":"Calle de los Yébenes","number":"92","postalCode":"28047","lat":40.3924948,"lon":-3.7531664},{"street":"Calle Ramón Camarero","number":"3","postalCode":"28035","lat":40.4817847,"lon":-3.7296887},{"street":"Paseo de las Delicias","number":"65","postalCode":"28045","lat":40.3986548,"lon":-3.6940308},{"street":"Calle de Silvano","number":"182","postalCode":"28043","lat":40.4624361,"lon":-3.6247751},{"street":"Calle de Santa Cruz de Marcenado","number":"1","postalCode":"28015","lat":40.4287645,"lon":-3.7070715},{"street":"Calle Almarza","number":"24","postalCode":"28033","lat":40.4676909,"lon":-3.6613936},{"street":"Camino de los Ingenieros","number":"1","postalCode":"28047","lat":40.3879747,"lon":-3.7455367},{"street":"Calle del Condado de Treviño","number":"35","postalCode":"28033","lat":40.480735,"lon":-3.6686778},{"street":"Plaza del Conde del Valle Suchil","number":"3","postalCode":"28015","lat":40.4303389,"lon":-3.7078484},{"street":"Calle de Parvillas Bajas","number":"22","postalCode":"28021","lat":40.3455299,"lon":-3.7086632},{"street":"Calle Fernando Díaz de Mendoza","number":"67","postalCode":"28019","lat":40.3925324,"lon":-3.7087972},{"street":"Avenida de Carabanchel Alto","number":"7","postalCode":"28044","lat":40.3725223,"lon":-3.7515873},{"street":"Calle Haro","number":"5","postalCode":"28043","lat":40.4641632,"lon":-3.6511918},{"street":"Calle de Antonio López","number":"67","postalCode":"28019","lat":40.3938477,"lon":-3.7069254},{"street":"Calle de la Vereda del Carmen","number":"9","postalCode":"28017","lat":40.4298487,"lon":-3.6512033},{"street":"Calle Isla de Nelson","number":"1","postalCode":"28035","lat":40.464997,"lon":-3.7232206},{"street":"Calle de Ferraz","number":"60","postalCode":"28008","lat":40.4279565,"lon":-3.7189135},{"street":"Calle de Granada","number":"28","postalCode":"28007","lat":40.4042521,"lon":-3.678356},{"street":"Calle de Blanes","number":"3","postalCode":"28042","lat":40.4648187,"lon":-3.589333},{"street":"Plaza de España","number":"11","postalCode":"28008","lat":40.4222168,"lon":-3.7141346},{"street":"Calle Matías Turrión","number":"6","postalCode":"28043","lat":40.4591858,"lon":-3.6583736},{"street":"Calle del Laurel","number":"33","postalCode":"28005","lat":40.4021171,"lon":-3.7040003},{"street":"Calle del Campo de la Paloma","number":"12","postalCode":"28018","lat":40.3844877,"lon":-3.6466674},{"street":"Calle de José del Hierro","number":"29","postalCode":"28027","lat":40.439799,"lon":-3.6455296},{"street":"Calle de la Sierra Toledana","number":"7","postalCode":"28038","lat":40.40047,"lon":-3.6609085},{"street":"Calle Medina de Pomar","number":"11","postalCode":"28042","lat":40.4520747,"lon":-3.5851062},{"street":"Plaza de la Sierra de Grazalema","number":"1","postalCode":"28031","lat":40.3735027,"lon":-3.6183284},{"street":"Calle de Serrano Anguita","number":"14","postalCode":"28004","lat":40.4277342,"lon":-3.698531},{"street":"Calle Cobos de Segovia","number":"5","postalCode":"28005","lat":40.4062047,"lon":-3.7190684},{"street":"Calle del Camino Viejo de Leganés","number":"186","postalCode":"28019","lat":40.3777965,"lon":-3.734527},{"street":"Calle del Salitre","number":"33","postalCode":"28012","lat":40.408637,"lon":-3.6993859},{"street":"Avenida del Doctor García Tapia","number":"206","postalCode":"28030","lat":40.4079196,"lon":-3.6356474},{"street":"Calle de Caleruega","number":"51","postalCode":"28033","lat":40.481261,"lon":-3.6721657},{"street":"Calle de Peña Nueva","number":"74","postalCode":"28031","lat":40.370739,"lon":-3.6204808},{"street":"Calle de Las Naves","number":"13","postalCode":"28005","lat":40.3989543,"lon":-3.7070783},{"street":"Avenida del Doctor Federico Rubio y Galí","number":"106","postalCode":"28039","lat":40.4562353,"lon":-3.7136992},{"street":"Calle del Arroyo de la Media Legua","number":"29","postalCode":"28030","lat":40.4108453,"lon":-3.6562048},{"street":"Calle de Fray Junípero Serra","number":"26","postalCode":"28039","lat":40.4642146,"lon":-3.7000713},{"street":"Calle de la Hermandad de Donantes de Sangre","number":"45","postalCode":"28041","lat":40.3526999,"lon":-3.7012642},{"street":"Calle de Fermín Caballero","number":"61","postalCode":"28034","lat":40.4823617,"lon":-3.7104998},{"street":"Calle de Alcorisa","number":"83","postalCode":"28043","lat":40.4642037,"lon":-3.6399908},{"street":"Avenida de Concha Espina","number":"199","postalCode":"28016","lat":40.452279,"lon":-3.6817504},{"street":"Calle de Maqueda","number":"129","postalCode":"28024","lat":40.3880342,"lon":-3.7613129},{"street":"Calle de Lérida","number":"93","postalCode":"28020","lat":40.4584229,"lon":-3.6993855},{"street":"Calle de Isla de Cuba","number":"12","postalCode":"28042","lat":40.4510118,"lon":-3.6112649},{"street":"Calle del Corregidor Juan Francisco de Luján","number":"81","postalCode":"28030","lat":40.4020431,"lon":-3.6465362},{"street":"Calle Castillo de Simancas","number":"2","postalCode":"28037","lat":40.4277569,"lon":-3.6270401},{"street":"Calle del Dos de Mayo","number":"2","postalCode":"28004","lat":40.4267611,"lon":-3.7046693},{"street":"Calle de Arcos de Jalón","number":"9","postalCode":"28037","lat":40.421243,"lon":-3.6237972},{"street":"Calle Inmaculada Concepción","number":"1","postalCode":"28019","lat":40.3928594,"lon":-3.7118408},{"street":"Avenida de Alfonso XIII","number":"30","postalCode":"28002","lat":40.4507028,"lon":-3.6672534},{"street":"Calle José Picón","number":"17","postalCode":"28028","lat":40.4350879,"lon":-3.6723929},{"street":"Calle Pobladura del Valle","number":"13","postalCode":"28037","lat":40.4269241,"lon":-3.6183793},{"street":"Calle del Gorrión","number":"2","postalCode":"28019","lat":40.3961695,"lon":-3.7276224},{"street":"Avenida de Andalucía","number":"5","postalCode":"28041","lat":40.3764036,"lon":-3.6969245},{"street":"Calle de Joaquín Jorge Alarcón","number":"49","postalCode":"28035","lat":40.4770064,"lon":-3.7231015},{"street":"Calle del Pico de Montánchez","number":"12","postalCode":"28031","lat":40.377829,"lon":-3.6205114},{"street":"Avenida de Canillejas a Vicálvaro","number":"25","postalCode":"28022","lat":40.4407571,"lon":-3.6151811},{"street":"Ronda del Ingenioso Hidalgo","number":"23","postalCode":"28034","lat":40.5002277,"lon":-3.6911447},{"street":"Calle de Antonio Nebrija","number":"7","postalCode":"28007","lat":40.4035666,"lon":-3.6840669},{"street":"Avenida de Santa Eugenia","number":"21","postalCode":"28031","lat":40.3847527,"lon":-3.6107459},{"street":"Calle de Nuestra Señora de la Luz","number":"118","postalCode":"28047","lat":40.3865397,"lon":-3.7515176},{"street":"Calle de Arganda","number":"32","postalCode":"28005","lat":40.3995673,"lon":-3.707014},{"street":"Calle de Lituania","number":"2","postalCode":"28030","lat":40.4090215,"lon":-3.6624619},{"street":"Calle del General Palanca","number":"4","postalCode":"28045","lat":40.3994561,"lon":-3.7001076},{"street":"Calle de Luis de Salazar","number":"3","postalCode":"28002","lat":40.4477399,"lon":-3.6670826},{"street":"Calle de Las Naves","number":"21","postalCode":"28005","lat":40.3994285,"lon":-3.7061406},{"street":"Calle de Mingorría","number":"16","postalCode":"28024","lat":40.393154,"lon":-3.780455},{"street":"Calle de la Fuente Carrantona","number":"33","postalCode":"28030","lat":40.4070034,"lon":-3.6319819},{"street":"Calle de Gabriel Usera","number":"39","postalCode":"28026","lat":40.3845456,"lon":-3.7085571},{"street":"Calle de Gregorio Benítez","number":"8","postalCode":"28043","lat":40.449814,"lon":-3.6493964},{"street":"Calle de Suecia","number":"11","postalCode":"28022","lat":40.4224696,"lon":-3.6082723},{"street":"Calle Toscana","number":"114","postalCode":"28032","lat":40.4183522,"lon":-3.6134814},{"street":"Calle Reyes Magos","number":"6","postalCode":"28009","lat":40.4116422,"lon":-3.6747646},{"street":"Calle de Churruca","number":"14","postalCode":"28004","lat":40.4277773,"lon":-3.7009655},{"street":"Plaza de Sisenando","number":"1","postalCode":"28011","lat":40.4083308,"lon":-3.7355499},{"street":"Calle de las Islas Bahamas","number":"33","postalCode":"28035","lat":40.4778641,"lon":-3.7228039},{"street":"Calle de Santa Susana","number":"30","postalCode":"28033","lat":40.4790187,"lon":-3.6457304},{"street":"Calle de Martín de los Heros","number":"68","postalCode":"28008","lat":40.4303866,"lon":-3.7186888},{"street":"Calle del Mirador de la Reina","number":"115","postalCode":"28035","lat":40.4907501,"lon":-3.7201053},{"street":"Avenida de Pablo Neruda","number":"85","postalCode":"28018","lat":40.3809573,"lon":-3.6576719},{"street":"Avenida de Burgos","number":"28","postalCode":"28036","lat":40.4784805,"lon":-3.6749873},{"street":"Calle Mesena","number":"18","postalCode":"28033","lat":40.4625773,"lon":-3.660801},{"street":"Calle Condes de Torreanaz","number":"4","postalCode":"28028","lat":40.4215586,"lon":-3.6673903},{"street":"Calle Sierra Alcaraz","number":"41","postalCode":"28053","lat":40.3900369,"lon":-3.6674984},{"street":"Calle del Marqués de Portugalete","number":"14","postalCode":"28027","lat":40.4464047,"lon":-3.6451602},{"street":"Calle del Segre","number":"3","postalCode":"28002","lat":40.4502246,"lon":-3.6828383},{"street":"Avenida de Carondelet","number":"23","postalCode":"28043","lat":40.4505522,"lon":-3.642912},{"street":"Avenida de Sotopalacios","number":"7","postalCode":"28034","lat":40.488389,"lon":-3.6846113},{"street":"Paseo de las Delicias","number":"22","postalCode":"28045","lat":40.4055933,"lon":-3.6937054},{"street":"Calle de Benita López","number":"23","postalCode":"28021","lat":40.3493873,"lon":-3.6892459},{"street":"Calle de la Época","number":"6","postalCode":"28025","lat":40.3784518,"lon":-3.7470222},{"street":"Calle de Julián Camarillo","number":"52","postalCode":"28037","lat":40.4389257,"lon":-3.6156597},{"street":"Calle Torregrosa","number":"16","postalCode":"28043","lat":40.4718021,"lon":-3.6480687},{"street":"Avenida de Las Águilas","number":"37","postalCode":"28044","lat":40.383018,"lon":-3.7694349},{"street":"Calle de Palafox","number":"18","postalCode":"28010","lat":40.4318731,"lon":-3.7013013},{"street":"Calle de la Virgen de Lluc","number":"60","postalCode":"28027","lat":40.4351013,"lon":-3.6495207},{"street":"Calle Seo de Urgel","number":"15","postalCode":"28033","lat":40.4693976,"lon":-3.6527403},{"street":"Calle de Camarena","number":"96","postalCode":"28047","lat":40.3933423,"lon":-3.7568952},{"street":"Calle del Guadalquivir","number":"16","postalCode":"28002","lat":40.4469484,"lon":-3.686897},{"street":"Calle del Collado del Viento","number":"19","postalCode":"28034","lat":40.4898221,"lon":-3.7046901},{"street":"Calle de los Montes de Barbanza","number":"17","postalCode":"28031","lat":40.3769736,"lon":-3.6185789},{"street":"Calle de Guadalajara","number":"17","postalCode":"28042","lat":40.4547309,"lon":-3.6153115},{"street":"Calle de Maqueda","number":"54","postalCode":"28024","lat":40.39266,"lon":-3.7647988},{"street":"Calle de Carlos Martín Álvarez","number":"23","postalCode":"28018","lat":40.3898517,"lon":-3.6619644},{"street":"Calle de Santa Cristina","number":"1","postalCode":"28021","lat":40.3466444,"lon":-3.7094484},{"street":"Avenida de Canillejas a Vicálvaro","number":"24","postalCode":"28022","lat":40.4401981,"lon":-3.6152586},{"street":"Calle de Seseña","number":"28","postalCode":"28024","lat":40.3988045,"lon":-3.7608216},{"street":"Calle de Luis Cabrera","number":"63","postalCode":"28002","lat":40.4443713,"lon":-3.6724917},{"street":"Calle Isla de Nelson","number":"12","postalCode":"28035","lat":40.4651336,"lon":-3.7229861},{"street":"Calle de los Montes de Barbanza","number":"23","postalCode":"28031","lat":40.3768166,"lon":-3.6191522},{"street":"Plaza del Corregidor Sancho de Córdoba","number":"3","postalCode":"28030","lat":40.4079016,"lon":-3.6531017},{"street":"Calle de Valdebernardo","number":"26","postalCode":"28030","lat":40.403605,"lon":-3.6311068},{"street":"Calle de los Hermanos Álvarez Quintero","number":"2","postalCode":"28004","lat":40.427113,"lon":-3.6974625},{"street":"Calle de Luis Cabrera","number":"19","postalCode":"28002","lat":40.4420363,"lon":-3.6760244},{"street":"Calle de Alberto Palacios","number":"13","postalCode":"28021","lat":40.3437863,"lon":-3.7125901},{"street":"Calle de las Sicélidas","number":"6","postalCode":"28043","lat":40.4635656,"lon":-3.6371502},{"street":"Calle del General Aranaz","number":"65","postalCode":"28027","lat":40.4451115,"lon":-3.6413412},{"street":"Calle Sincelejo","number":"8","postalCode":"28033","lat":40.4739708,"lon":-3.6355024},{"street":"Calle Capitán Salazar Martínez","number":"9","postalCode":"28005","lat":40.4075478,"lon":-3.7102564},{"street":"Colonia de Erillas","number":"8","postalCode":"28053","lat":40.3938707,"lon":-3.664914},{"street":"Calle del Teniente Coronel Noreña","number":"26","postalCode":"28045","lat":40.3883121,"lon":-3.6933444},{"street":"Calle de Longares","number":"36","postalCode":"28022","lat":40.4283283,"lon":-3.6094213},{"street":"Calle del Sulfato","number":"9","postalCode":"28021","lat":40.3471065,"lon":-3.7143155},{"street":"Calle de La Bañeza","number":"43","postalCode":"28029","lat":40.4749813,"lon":-3.7181442},{"street":"Calle de Valmojado","number":"117","postalCode":"28047","lat":40.3930287,"lon":-3.7580228},{"street":"Calle del Jazmín","number":"29","postalCode":"28033","lat":40.4814467,"lon":-3.6642157},{"street":"Calle del Pinzón","number":"23","postalCode":"28025","lat":40.3895687,"lon":-3.7399932},{"street":"Calle del Marqués de Cubas","number":"25","postalCode":"28014","lat":40.4162061,"lon":-3.6957416},{"street":"Avenida de la Victoria","number":"63","postalCode":"28023","lat":40.4732354,"lon":-3.8325206},{"street":"Calle de Juan Bravo","number":"69","postalCode":"28006","lat":40.4324967,"lon":-3.6736978},{"street":"Avenida de Ramón y Cajal","number":"49","postalCode":"28016","lat":40.4524932,"lon":-3.6707735},{"street":"Calle de Velázquez","number":"140","postalCode":"28006","lat":40.4407041,"lon":-3.6825417},{"street":"Calle de Alcalá","number":"261","postalCode":"28027","lat":40.4319569,"lon":-3.6575662},{"street":"Calle de Nanclares de Oca","number":"14","postalCode":"28022","lat":40.444438,"lon":-3.5773757},{"street":"Calle Flora Tristán","number":"40","postalCode":"28041","lat":40.356641,"lon":-3.6858569},{"street":"Calle del General Aranaz","number":"85","postalCode":"28027","lat":40.4472736,"lon":-3.6460411},{"street":"Calle de Guillén de Castro","number":"10","postalCode":"28017","lat":40.4277265,"lon":-3.6445697},{"street":"Calle de los Molinos","number":"13","postalCode":"28039","lat":40.4581055,"lon":-3.7029458},{"street":"Calle de Rusia","number":"11","postalCode":"28022","lat":40.4244025,"lon":-3.6104407},{"street":"Calle de la Virgen de los Desamparados","number":"42","postalCode":"28041","lat":40.3498025,"lon":-3.6992705},{"street":"Calle de Prieto Ureña","number":"9","postalCode":"28016","lat":40.4649618,"lon":-3.6691398},{"street":"Avenida de América","number":"24","postalCode":"28028","lat":40.4387272,"lon":-3.6739855},{"street":"Calle de Fernando VII","number":"5","postalCode":"28037","lat":40.4344341,"lon":-3.6183305},{"street":"Calle de Pan y Toros","number":"19","postalCode":"28041","lat":40.3593359,"lon":-3.6941951},{"street":"Calle Argenta","number":"8","postalCode":"28037","lat":40.4228015,"lon":-3.6153715},{"street":"Calle del Marqués de Jura Real","number":"13","postalCode":"28019","lat":40.3926953,"lon":-3.7088712},{"street":"Calle Real de Arganda","number":"32","postalCode":"28031","lat":40.3793535,"lon":-3.618452},{"street":"Calle Condesa de Teba","number":"11","postalCode":"28044","lat":40.3733774,"lon":-3.7584861},{"street":"Calle del Lago Titicaca","number":"6","postalCode":"28032","lat":40.4025679,"lon":-3.608506},{"street":"Calle de Ligonde","number":"3","postalCode":"28050","lat":40.5114099,"lon":-3.6692699},{"street":"Calle de la Vía","number":"19","postalCode":"28019","lat":40.3863796,"lon":-3.7203105},{"street":"Calle Sánchez Guerrero","number":"7","postalCode":"28043","lat":40.4665863,"lon":-3.6530867},{"street":"Calle del Hierro","number":"15","postalCode":"28045","lat":40.3929208,"lon":-3.691757},{"street":"Calle del Corazón de María","number":"58","postalCode":"28002","lat":40.4451898,"lon":-3.6667062},{"street":"Paseo de Ginebra","number":"51","postalCode":"28022","lat":40.4234626,"lon":-3.6010089},{"street":"Calle Berrocal","number":"3","postalCode":"28021","lat":40.3475755,"lon":-3.6771178},{"street":"Calle de Juan Bravo","number":"3","postalCode":"28006","lat":40.4333387,"lon":-3.6852449},{"street":"Calle de Francisco Navacerrada","number":"5","postalCode":"28028","lat":40.4309928,"lon":-3.6701712},{"street":"Calle de Cebreros","number":"98","postalCode":"28011","lat":40.4042335,"lon":-3.7500524},{"street":"Calle de Don Quijote","number":"41","postalCode":"28020","lat":40.4499918,"lon":-3.6992039},{"street":"Calle de La Chulapona","number":"8","postalCode":"28041","lat":40.3601984,"lon":-3.6972505},{"street":"Calle de Melquíades Álvarez","number":"5","postalCode":"28003","lat":40.4413667,"lon":-3.7131223}]},"muni-002":{"centroid":{"lat":40.355907782129286,"lon":-3.8349831334600752},"points":[{"street":"Calle Guindales","number":"17","postalCode":"28921","lat":40.3474338,"lon":-3.831339},{"street":"Calle Madrid","number":"12","postalCode":"28921","lat":40.3493537,"lon":-3.8275833},{"street":"Plaza de Santiago de Compostela","number":"1","postalCode":"28924","lat":40.3511781,"lon":-3.8157124},{"street":"Calle de los Cantos","number":"23","postalCode":"28921","lat":40.3419347,"lon":-3.8246669},{"street":"Calle del Ministro Fernández Ordóñez","number":"2","postalCode":"28924","lat":40.3502736,"lon":-3.8138117},{"street":"Calle los Pinos","number":"16","postalCode":"28922","lat":40.3393023,"lon":-3.8349834},{"street":"Calle Olímpico Francisco Fernández Ochoa","number":"11","postalCode":"28922","lat":40.3403083,"lon":-3.8177244},{"street":"Calle Budapest","number":"1","postalCode":"28922","lat":40.3496135,"lon":-3.8363318},{"street":"Calle Puentedeume","number":"6","postalCode":"28925","lat":40.3562347,"lon":-3.8102032},{"street":"Avenida del Oeste","number":"27","postalCode":"28922","lat":40.3398599,"lon":-3.8275267},{"street":"Avenida del Oeste","number":"47","postalCode":"28922","lat":40.3397634,"lon":-3.8259591},{"street":"Calle de la Jabonería","number":"21","postalCode":"28921","lat":40.3487128,"lon":-3.8267157},{"street":"Avenida de Leganés","number":"9","postalCode":"28925","lat":40.3517869,"lon":-3.8240749},{"street":"Calle San José","number":"18","postalCode":"28922","lat":40.349774,"lon":-3.824658},{"street":"Calle de la Electrónica","number":"9","postalCode":"28922","lat":40.3356943,"lon":-3.8128068},{"street":"Calle de Noya","number":"5","postalCode":"28925","lat":40.3571075,"lon":-3.8116503},{"street":"Calle de Venus","number":"14","postalCode":"28925","lat":40.3523578,"lon":-3.8093679},{"street":"Calle Urano","number":"7","postalCode":"28925","lat":40.354004,"lon":-3.8100163},{"street":"Plaza Santo Domingo","number":"3","postalCode":"28922","lat":40.3441736,"lon":-3.8268832},{"street":"Calle las Escuelas","number":"1","postalCode":"28921","lat":40.3488336,"lon":-3.8298191},{"street":"Calle Porto Colón","number":"2","postalCode":"28924","lat":40.3516398,"lon":-3.8217705},{"street":"Calle Cisneros","number":"24","postalCode":"28922","lat":40.345143,"lon":-3.8331018},{"street":"Calle Mayor","number":"99","postalCode":"28922","lat":40.3407885,"lon":-3.8278902},{"street":"Calle Cañada","number":"20-28","postalCode":"28922","lat":40.3433815,"lon":-3.8303392},{"street":"Calle Olimpiada","number":"1","postalCode":"28922","lat":40.3449501,"lon":-3.8170206},{"street":"Calle de Sapporo","number":"2","postalCode":"28922","lat":40.3459238,"lon":-3.8183763},{"street":"Calle de Valladolid","number":"18","postalCode":"28922","lat":40.3417517,"lon":-3.8303105},{"street":"Calle de los Robles","number":"7","postalCode":"28922","lat":40.3393099,"lon":-3.8376631},{"street":"Avenida del Oeste","number":"2","postalCode":"28922","lat":40.3427551,"lon":-3.8336885},{"street":"Calle Pablo Picasso","number":"32","postalCode":"28922","lat":40.330963,"lon":-3.8389479},{"street":"Calle los Pinos","number":"11","postalCode":"28922","lat":40.3384647,"lon":-3.8303818},{"street":"Calle del Parque de Ordesa","number":"5","postalCode":"28922","lat":40.3481837,"lon":-3.8050236},{"street":"Avenida de los Castillos","number":"9","postalCode":"28924","lat":40.3550772,"lon":-3.8076949},{"street":"Calle Jabonería","number":"60","postalCode":"28921","lat":40.3493814,"lon":-3.8213138},{"street":"Calle del Parque Bujaruelo","number":"16","postalCode":"28925","lat":40.348525,"lon":-3.806695},{"street":"Avenida de Leganés","number":"1","postalCode":"28925","lat":40.3525047,"lon":-3.8257192},{"street":"Calle Iglesia","number":"15","postalCode":"28922","lat":40.3518477,"lon":-3.8285027},{"street":"Calle Iglesia","number":"11","postalCode":"28921","lat":40.3507616,"lon":-3.8285685},{"street":"Calle Iglesia","number":"9","postalCode":"28921","lat":40.3503313,"lon":-3.8285873},{"street":"Calle los Chopos","number":"1","postalCode":"28922","lat":40.3400543,"lon":-3.8360043},{"street":"Calle Jabonería","number":"53","postalCode":"28923","lat":40.3492954,"lon":-3.8244702},{"street":"Avenida Alcalde Jose Aranda","number":"47a","postalCode":"28923","lat":40.3465556,"lon":-3.8192672},{"street":"Avenida las Retamas","number":"80","postalCode":"28922","lat":40.3381903,"lon":-3.8261887},{"street":"Plaza del Peñón","number":"10","postalCode":"28922","lat":40.3472989,"lon":-3.8190947},{"street":"Calle Munich","number":"4","postalCode":"28922","lat":40.3447596,"lon":-3.8151904},{"street":"Calle de Sapporo","number":"20","postalCode":"28923","lat":40.3451371,"lon":-3.8156008},{"street":"Calle Virgen de Icíar","number":"15","postalCode":"28921","lat":40.344697,"lon":-3.8305082},{"street":"Calle Pablo Picasso","number":"3","postalCode":"28922","lat":40.3305575,"lon":-3.8389225},{"street":"Calle de Sapporo","number":"1","postalCode":"28922","lat":40.3464066,"lon":-3.8181243},{"street":"Calle de Sapporo","number":"3","postalCode":"28922","lat":40.3463214,"lon":-3.8179061},{"street":"Calle del Parque de Ordesa","number":"3","postalCode":"28924","lat":40.348594,"lon":-3.8060013},{"street":"Calle Nilo","number":"1","postalCode":"28922","lat":40.3309633,"lon":-3.8357394},{"street":"Calle Chile","number":"13","postalCode":"28922","lat":40.3562473,"lon":-3.831672},{"street":"Calle Olímpico Fernández Ochoa","number":"18","postalCode":"28923","lat":40.3446235,"lon":-3.8116725},{"street":"Calle de Polvoranca","number":"39","postalCode":"28921","lat":40.3410892,"lon":-3.8154533},{"street":"Calle de Polvoranca","number":"41","postalCode":"28923","lat":40.3406988,"lon":-3.8149613},{"street":"Calle Dos de Mayo","number":"20","postalCode":"28922","lat":40.3517662,"lon":-3.8261173},{"street":"Calle Mediterráneo","number":"4","postalCode":"28922","lat":40.3322048,"lon":-3.8374173},{"street":"Calle Príncipe Don Juan Carlos","number":"11a","postalCode":"28924","lat":40.3503757,"lon":-3.8207168},{"street":"Calle de Chapinería","number":"6B","postalCode":"28925","lat":40.3907871,"lon":-3.8409214},{"street":"Calle de los Cantos","number":"24","postalCode":"28922","lat":40.3422007,"lon":-3.826292},{"street":"Calle de los Cantos","number":"22","postalCode":"28922","lat":40.3421768,"lon":-3.8264412},{"street":"Calle de los Cantos","number":"18","postalCode":"28922","lat":40.3420695,"lon":-3.8267989},{"street":"Calle de los Cantos","number":"20","postalCode":"28922","lat":40.3420977,"lon":-3.8266253},{"street":"Calle de los Cantos","number":"16","postalCode":"28922","lat":40.3420398,"lon":-3.8269684},{"street":"Calle de los Cantos","number":"14","postalCode":"28922","lat":40.3419945,"lon":-3.8271534},{"street":"Calle de los Cantos","number":"12","postalCode":"28922","lat":40.3419647,"lon":-3.8273424},{"street":"Calle Don Quijote","number":"9","postalCode":"28922","lat":40.3409903,"lon":-3.8296062},{"street":"Calle Don Quijote","number":"7","postalCode":"28922","lat":40.3408625,"lon":-3.8294081},{"street":"Calle Mayor","number":"84","postalCode":"28922","lat":40.3414466,"lon":-3.8277936},{"street":"Calle Alfonso VIII","number":"1","postalCode":"28922","lat":40.3411697,"lon":-3.828243},{"street":"Calle Alfonso VIII","number":"3","postalCode":"28922","lat":40.3412969,"lon":-3.8284392},{"street":"Calle Dulcinea","number":"1","postalCode":"28922","lat":40.3407682,"lon":-3.8284458},{"street":"Calle Dulcinea","number":"3","postalCode":"28922","lat":40.3408956,"lon":-3.828643},{"street":"Calle Dulcinea","number":"5","postalCode":"28922","lat":40.341022,"lon":-3.8288401},{"street":"Calle Dulcinea","number":"7","postalCode":"28922","lat":40.3411491,"lon":-3.8290373},{"street":"Calle Don Quijote","number":"1","postalCode":"28922","lat":40.3404812,"lon":-3.8288179},{"street":"Calle Don Quijote","number":"3","postalCode":"28922","lat":40.3406084,"lon":-3.8290142},{"street":"Calle Don Quijote","number":"5","postalCode":"28922","lat":40.3407352,"lon":-3.8292112},{"street":"Calle de los Robles","number":"12","postalCode":"28922","lat":40.329887,"lon":-3.8430424},{"street":"Calle Mediterráneo","number":"10","postalCode":"28922","lat":40.3293769,"lon":-3.8373816},{"street":"Calle de Valladolid","number":"25","postalCode":"28922","lat":40.3413628,"lon":-3.8300037},{"street":"Calle de Valladolid","number":"23","postalCode":"28922","lat":40.3414275,"lon":-3.8298144},{"street":"Calle de Valladolid","number":"21","postalCode":"28922","lat":40.3414706,"lon":-3.8296152},{"street":"Calle de Valladolid","number":"19","postalCode":"28922","lat":40.341534,"lon":-3.8294256},{"street":"Calle de Valladolid","number":"17","postalCode":"28922","lat":40.3415777,"lon":-3.8292259},{"street":"Calle de Valladolid","number":"15","postalCode":"28922","lat":40.3416406,"lon":-3.8290358},{"street":"Calle de Valladolid","number":"13","postalCode":"28922","lat":40.3416846,"lon":-3.8288362},{"street":"Calle de Valladolid","number":"11","postalCode":"28922","lat":40.3417476,"lon":-3.8286457},{"street":"Calle de Valladolid","number":"9","postalCode":"28922","lat":40.3417929,"lon":-3.8284467},{"street":"Calle de Valladolid","number":"7","postalCode":"28922","lat":40.3418553,"lon":-3.8282556},{"street":"Calle de Valladolid","number":"5","postalCode":"28922","lat":40.3418987,"lon":-3.8280555},{"street":"Calle de Valladolid","number":"3","postalCode":"28922","lat":40.3419621,"lon":-3.8278651},{"street":"Calle los Arces","number":"29","postalCode":"28922","lat":40.3381547,"lon":-3.8268146},{"street":"Calle Bratislava","number":"1","postalCode":"28922","lat":40.3517929,"lon":-3.8334012},{"street":"Calle Estocolmo","number":"19","postalCode":"28922","lat":40.352126,"lon":-3.8322116},{"street":"Calle Estocolmo","number":"17","postalCode":"28922","lat":40.3521385,"lon":-3.8324043},{"street":"Calle Estocolmo","number":"15","postalCode":"28922","lat":40.3519833,"lon":-3.8324204},{"street":"Calle Estocolmo","number":"13","postalCode":"28922","lat":40.3518053,"lon":-3.8324786},{"street":"Calle Estocolmo","number":"11","postalCode":"28922","lat":40.3517696,"lon":-3.8323075},{"street":"Calle Estocolmo","number":"9","postalCode":"28922","lat":40.3517309,"lon":-3.8320236},{"street":"Calle Estocolmo","number":"7","postalCode":"28922","lat":40.3517177,"lon":-3.831846},{"street":"Calle Estocolmo","number":"5","postalCode":"28922","lat":40.3518768,"lon":-3.8318262},{"street":"Calle Estocolmo","number":"3","postalCode":"28922","lat":40.3520518,"lon":-3.8317671},{"street":"Calle Estocolmo","number":"1","postalCode":"28922","lat":40.3520866,"lon":-3.8319312},{"street":"Avenida de Villaviciosa","number":"1","postalCode":"28922","lat":40.3513662,"lon":-3.8322586},{"street":"Avenida de Villaviciosa","number":"3","postalCode":"28922","lat":40.351385,"lon":-3.8324699},{"street":"Avenida de Villaviciosa","number":"5","postalCode":"28922","lat":40.3514038,"lon":-3.8326817},{"street":"Avenida de Villaviciosa","number":"7","postalCode":"28922","lat":40.3514411,"lon":-3.8328891},{"street":"Avenida de Villaviciosa","number":"9","postalCode":"28922","lat":40.3514866,"lon":-3.8332787},{"street":"Avenida de Villaviciosa","number":"11","postalCode":"28922","lat":40.3515051,"lon":-3.8334958},{"street":"Avenida de Villaviciosa","number":"13","postalCode":"28922","lat":40.3515232,"lon":-3.8337092},{"street":"Avenida de Villaviciosa","number":"15","postalCode":"28922","lat":40.3515727,"lon":-3.8339058},{"street":"Avenida de Villaviciosa","number":"17","postalCode":"28922","lat":40.3515912,"lon":-3.8341168},{"street":"Avenida de Villaviciosa","number":"19","postalCode":"28922","lat":40.3516098,"lon":-3.8343291},{"street":"Calle Bratislava","number":"3","postalCode":"28922","lat":40.3520417,"lon":-3.8336302},{"street":"Calle Bratislava","number":"1-3","postalCode":"28922","lat":40.3520327,"lon":-3.8333003},{"street":"Avenida de Villaviciosa","number":"31","postalCode":"28922","lat":40.3521145,"lon":-3.8341894},{"street":"Avenida de Villaviciosa","number":"33","postalCode":"28922","lat":40.3520974,"lon":-3.8340582},{"street":"Avenida de Villaviciosa","number":"35","postalCode":"28922","lat":40.3520805,"lon":-3.8339286},{"street":"Avenida de Villaviciosa","number":"31-35","postalCode":"28922","lat":40.3521309,"lon":-3.8343523},{"street":"Calle Estocolmo","number":"23","postalCode":"28922","lat":40.3524008,"lon":-3.8334994},{"street":"Calle Estocolmo","number":"21","postalCode":"28922","lat":40.3523859,"lon":-3.8333849},{"street":"Calle Estocolmo","number":"25","postalCode":"28922","lat":40.3524332,"lon":-3.83375},{"street":"Calle Estocolmo","number":"27","postalCode":"28922","lat":40.3524596,"lon":-3.8339539},{"street":"Calle Estocolmo","number":"29","postalCode":"28922","lat":40.3524803,"lon":-3.8341134},{"street":"Calle Estocolmo","number":"2","postalCode":"28922","lat":40.3526295,"lon":-3.8324724},{"street":"Calle Estocolmo","number":"4","postalCode":"28922","lat":40.3526239,"lon":-3.8324287},{"street":"Calle Estocolmo","number":"6","postalCode":"28922","lat":40.3526111,"lon":-3.8323302},{"street":"Calle Estocolmo","number":"10","postalCode":"28922","lat":40.3525934,"lon":-3.8321937},{"street":"Calle Estocolmo","number":"12","postalCode":"28922","lat":40.3525878,"lon":-3.8321501},{"street":"Calle Estocolmo","number":"14","postalCode":"28922","lat":40.3525704,"lon":-3.8320158},{"street":"Calle Estocolmo","number":"16","postalCode":"28922","lat":40.3525652,"lon":-3.8319755},{"street":"Calle Estocolmo","number":"18","postalCode":"28922","lat":40.3525484,"lon":-3.8318456},{"street":"Calle Estocolmo","number":"20","postalCode":"28922","lat":40.3525427,"lon":-3.8318018},{"street":"Calle Estocolmo","number":"22","postalCode":"28922","lat":40.3525299,"lon":-3.8317026},{"street":"Calle Estocolmo","number":"24","postalCode":"28922","lat":40.3525247,"lon":-3.8316626},{"street":"Calle Estocolmo","number":"26","postalCode":"28922","lat":40.3525122,"lon":-3.8315661},{"street":"Calle Estocolmo","number":"28","postalCode":"28922","lat":40.3525066,"lon":-3.8315229},{"street":"Plaza de la Constitución","number":"4","postalCode":"28925","lat":40.353922,"lon":-3.8140498},{"street":"Calle Hormigoneras","number":"1","postalCode":"28922","lat":40.3429074,"lon":-3.8044971},{"street":"Calle Zamora","number":"1","postalCode":"28922","lat":40.3436807,"lon":-3.8314163},{"street":"Martin Luther King","number":"48","postalCode":"28922","lat":40.3290476,"lon":-3.8389831},{"street":"Plaza Mayor","number":"97","postalCode":"28922","lat":40.3408917,"lon":-3.8277816},{"street":"Calle Mayor","number":"97","postalCode":"28922","lat":40.3410894,"lon":-3.8275975},{"street":"Avenida del Oeste","number":"1D","postalCode":"28922","lat":40.3429462,"lon":-3.8327318},{"street":"Calle de los Cantos","number":"4","postalCode":"28922","lat":40.343285,"lon":-3.8323992},{"street":"Calle de los Cantos","number":"2","postalCode":"28922","lat":40.3433259,"lon":-3.8326091},{"street":"Calle de los Cantos","number":"6","postalCode":"28922","lat":40.3432452,"lon":-3.8321934},{"street":"Calle de los Cantos","number":"8","postalCode":"28922","lat":40.3432084,"lon":-3.832003},{"street":"Calle Zamora","number":"2","postalCode":"28922","lat":40.3429452,"lon":-3.8319895},{"street":"Calle Zamora","number":"4","postalCode":"28922","lat":40.3427913,"lon":-3.8320405},{"street":"Calle Zamora","number":"6","postalCode":"28922","lat":40.3426487,"lon":-3.8320874},{"street":"Avenida del Oeste","number":"3","postalCode":"28922","lat":40.3424484,"lon":-3.8322772},{"street":"Avenida del Oeste","number":"1","postalCode":"28922","lat":40.3430029,"lon":-3.8329109},{"street":"Calle Zamora","number":"7","postalCode":"28922","lat":40.3430292,"lon":-3.8316462},{"street":"Calle Zamora","number":"9","postalCode":"28922","lat":40.3428731,"lon":-3.8316313},{"street":"Calle Zamora","number":"11","postalCode":"28922","lat":40.3427188,"lon":-3.8316181},{"street":"Calle Zamora","number":"13","postalCode":"28922","lat":40.3425639,"lon":-3.8316019},{"street":"Calle Zamora","number":"15","postalCode":"28922","lat":40.342406,"lon":-3.8315868},{"street":"Calle Cerrajón","number":"10G","postalCode":"28922","lat":40.342708,"lon":-3.8312446},{"street":"Avenida del Oeste","number":"9","postalCode":"28922","lat":40.3418284,"lon":-3.8314263},{"street":"Avenida del Oeste","number":"7","postalCode":"28922","lat":40.3419046,"lon":-3.8315497},{"street":"Avenida del Oeste","number":"2B","postalCode":"28922","lat":40.3422825,"lon":-3.8329229},{"street":"Calle de la Olímpica Conchita Puig","number":"5","postalCode":"28922","lat":40.3447263,"lon":-3.8190506},{"street":"Calle Mayor","number":"7","postalCode":"28922","lat":40.3485027,"lon":-3.8275531},{"street":"Calle Oslo","number":"53","postalCode":"28922","lat":40.3409862,"lon":-3.8478859},{"street":"Calle de la Laguna","number":"28","postalCode":"28923","lat":40.3373754,"lon":-3.8085664},{"street":"Calle los Pinos","number":"40","postalCode":"28922","lat":40.3380843,"lon":-3.8316822},{"street":"Calle Urano","number":"8","postalCode":"28925","lat":40.3535183,"lon":-3.8098876},{"street":"Calle Urano","number":"5","postalCode":"28925","lat":40.3540298,"lon":-3.8101004},{"street":"C. Islas Cíes","number":"3","postalCode":"28922","lat":40.3455249,"lon":-3.8103263},{"street":"Paseo Castilla","number":"12","postalCode":"28921","lat":40.3494591,"lon":-3.8294116},{"street":"Avenida de la Libertad","number":"87","postalCode":"28925","lat":40.3519569,"lon":-3.8047291},{"street":"Calle Ciudad Real","number":"1","postalCode":"28922","lat":40.3441929,"lon":-3.8293357},{"street":"Polï¿½ï¿½gono Pp Ensanche Sur","number":"173","postalCode":"28922","lat":40.3304843,"lon":-3.8309112},{"street":"Calle Cooperacion","number":"11","postalCode":"28922","lat":40.3294719,"lon":-3.8294643},{"street":"Calle Oceania","number":"3","postalCode":"28922","lat":40.3296021,"lon":-3.8288882},{"street":"Calle Gabriela Mistral","number":"12","postalCode":"28922","lat":40.330435,"lon":-3.8267647},{"street":"Calle Pablo Neruda","number":"78","postalCode":"28922","lat":40.3304003,"lon":-3.8244216},{"street":"Calle Pablo Neruda","number":"80","postalCode":"28922","lat":40.329616,"lon":-3.8244119},{"street":"Calle Nejapa","number":"2 C","postalCode":"28922","lat":40.3266048,"lon":-3.8302202},{"street":"Calle Emigrante, de","number":"1 B","postalCode":"28922","lat":40.3269565,"lon":-3.8325437},{"street":"Calle Emigrante, de","number":"1 A","postalCode":"28922","lat":40.3282551,"lon":-3.8325604},{"street":"Calle Nejapa","number":"2 B","postalCode":"28922","lat":40.3274574,"lon":-3.8302308},{"street":"Calle Martin Luther King","number":"1121","postalCode":"28922","lat":40.3281586,"lon":-3.8320669},{"street":"Calle Martin Luther King","number":"9","postalCode":"28922","lat":40.3288223,"lon":-3.8321585},{"street":"Calle Hermanamiento","number":"48","postalCode":"28922","lat":40.3264514,"lon":-3.8320549},{"street":"Calle Alfredo Nobel","number":"2031","postalCode":"28922","lat":40.326461,"lon":-3.8307236},{"street":"Calle Alfredo Nobel","number":"27","postalCode":"28922","lat":40.3268101,"lon":-3.8311939},{"street":"Calle 21 de Marzo","number":"1","postalCode":"28922","lat":40.3279791,"lon":-3.8307109},{"street":"Calle 21 de Marzo","number":"2021","postalCode":"28922","lat":40.3273145,"lon":-3.830734},{"street":"Calle Martin Luther King","number":"11","postalCode":"28922","lat":40.3288405,"lon":-3.8296288},{"street":"Calle Alfredo Nobel","number":"25","postalCode":"28922","lat":40.3284545,"lon":-3.831214},{"street":"Calle Ancon","number":"2","postalCode":"28922","lat":40.3269683,"lon":-3.8360799},{"street":"Calle Ancon","number":"1","postalCode":"28922","lat":40.3268485,"lon":-3.837071},{"street":"Calle Mestizaje","number":"3","postalCode":"28922","lat":40.32849,"lon":-3.8346516},{"street":"Calle Mayari","number":"2 B","postalCode":"28922","lat":40.3269886,"lon":-3.8336625},{"street":"Calle Mestizaje","number":"9","postalCode":"28922","lat":40.3267829,"lon":-3.8346306},{"street":"Calle Derechos Civiles","number":"1","postalCode":"28922","lat":40.3319794,"lon":-3.8228991},{"street":"Calle Solidaridad","number":"4","postalCode":"28922","lat":40.3279047,"lon":-3.8237415},{"street":"Calle Solidaridad","number":"62","postalCode":"28922","lat":40.3279182,"lon":-3.8218528},{"street":"Calle Igualdad","number":"49","postalCode":"28922","lat":40.3283685,"lon":-3.82187},{"street":"Calle Igualdad","number":"1","postalCode":"28922","lat":40.3283578,"lon":-3.8233774},{"street":"Calle Igualdad","number":"2","postalCode":"28922","lat":40.3284688,"lon":-3.8236029},{"street":"Calle Igualdad","number":"4","postalCode":"28922","lat":40.3284692,"lon":-3.8235386},{"street":"Calle Igualdad","number":"6","postalCode":"28922","lat":40.3284697,"lon":-3.8234732},{"street":"Calle Igualdad","number":"8","postalCode":"28922","lat":40.3284702,"lon":-3.8234054},{"street":"Calle Igualdad","number":"10","postalCode":"28922","lat":40.3284706,"lon":-3.8233422},{"street":"Calle Igualdad","number":"12","postalCode":"28922","lat":40.3284711,"lon":-3.8232779},{"street":"Calle Igualdad","number":"14","postalCode":"28922","lat":40.3284716,"lon":-3.8232112},{"street":"Calle Igualdad","number":"16","postalCode":"28922","lat":40.328472,"lon":-3.8231485},{"street":"Calle Igualdad","number":"18","postalCode":"28922","lat":40.3284725,"lon":-3.823083},{"street":"Calle Igualdad","number":"20","postalCode":"28922","lat":40.3284729,"lon":-3.8230175},{"street":"Calle Igualdad","number":"22","postalCode":"28922","lat":40.3284734,"lon":-3.8229509},{"street":"Calle Igualdad","number":"24","postalCode":"28922","lat":40.3284739,"lon":-3.8228874},{"street":"Calle Igualdad","number":"26","postalCode":"28922","lat":40.3284743,"lon":-3.8228254},{"street":"Calle Igualdad","number":"28","postalCode":"28922","lat":40.3284747,"lon":-3.822766},{"street":"Calle Igualdad","number":"30","postalCode":"28922","lat":40.3284752,"lon":-3.8227022},{"street":"Calle Igualdad","number":"32","postalCode":"28922","lat":40.3284756,"lon":-3.8226402},{"street":"Calle Igualdad","number":"34","postalCode":"28922","lat":40.3284761,"lon":-3.8225763},{"street":"Calle Igualdad","number":"36","postalCode":"28922","lat":40.3284765,"lon":-3.8225135},{"street":"Calle Igualdad","number":"38","postalCode":"28922","lat":40.328477,"lon":-3.822448},{"street":"Calle Igualdad","number":"40","postalCode":"28922","lat":40.3284774,"lon":-3.8223876},{"street":"Calle Igualdad","number":"42","postalCode":"28922","lat":40.3284779,"lon":-3.8223182},{"street":"Calle Igualdad","number":"44","postalCode":"28922","lat":40.3284784,"lon":-3.8222562},{"street":"Calle Igualdad","number":"48","postalCode":"28922","lat":40.3284793,"lon":-3.8221299},{"street":"Calle Igualdad","number":"50","postalCode":"28922","lat":40.3284797,"lon":-3.8220614},{"street":"Calle Igualdad","number":"52","postalCode":"28922","lat":40.3284802,"lon":-3.8219951},{"street":"Calle Igualdad","number":"54","postalCode":"28922","lat":40.3284807,"lon":-3.8219327},{"street":"Calle Igualdad","number":"56","postalCode":"28922","lat":40.3284811,"lon":-3.8218657},{"street":"Calle Martin Luther King","number":"87","postalCode":"28922","lat":40.3289315,"lon":-3.821872},{"street":"Calle Martin Luther King","number":"85","postalCode":"28922","lat":40.3289311,"lon":-3.8219393},{"street":"Calle Martin Luther King","number":"83","postalCode":"28922","lat":40.3289306,"lon":-3.8220028},{"street":"Calle Martin Luther King","number":"81","postalCode":"28922","lat":40.3289302,"lon":-3.8220658},{"street":"Calle Martin Luther King","number":"79","postalCode":"28922","lat":40.3289297,"lon":-3.8221319},{"street":"Calle Martin Luther King","number":"77","postalCode":"28922","lat":40.3289292,"lon":-3.8221978},{"street":"Calle Martin Luther King","number":"75","postalCode":"28922","lat":40.3289288,"lon":-3.8222615},{"street":"Calle Martin Luther King","number":"73","postalCode":"28922","lat":40.3289283,"lon":-3.8223252},{"street":"Calle Martin Luther King","number":"71","postalCode":"28922","lat":40.3289279,"lon":-3.8223884},{"street":"Calle Martin Luther King","number":"69","postalCode":"28922","lat":40.3289274,"lon":-3.8224548},{"street":"Calle Martin Luther King","number":"67","postalCode":"28922","lat":40.328927,"lon":-3.8225187},{"street":"Calle Martin Luther King","number":"65","postalCode":"28922","lat":40.3289265,"lon":-3.8225823},{"street":"Calle Martin Luther King","number":"63","postalCode":"28922","lat":40.328926,"lon":-3.8226471},{"street":"Calle Martin Luther King","number":"61","postalCode":"28922","lat":40.3289256,"lon":-3.8227104},{"street":"Calle Martin Luther King","number":"59","postalCode":"28922","lat":40.3289248,"lon":-3.8228274},{"street":"Calle Martin Luther King","number":"57","postalCode":"28922","lat":40.3289243,"lon":-3.8228949},{"street":"Calle Martin Luther King","number":"55","postalCode":"28922","lat":40.3289238,"lon":-3.8229574},{"street":"Calle Martin Luther King","number":"53","postalCode":"28922","lat":40.3289234,"lon":-3.8230204},{"street":"Calle Martin Luther King","number":"51","postalCode":"28922","lat":40.3289229,"lon":-3.8230868},{"street":"Calle Martin Luther King","number":"49","postalCode":"28922","lat":40.3289224,"lon":-3.8231525},{"street":"Calle Martin Luther King","number":"47","postalCode":"28922","lat":40.328922,"lon":-3.823218},{"street":"Calle Martin Luther King","number":"45","postalCode":"28922","lat":40.3289215,"lon":-3.8232821},{"street":"Calle Martin Luther King","number":"43","postalCode":"28922","lat":40.3289211,"lon":-3.8233476},{"street":"Calle Martin Luther King","number":"41","postalCode":"28922","lat":40.3289206,"lon":-3.823415},{"street":"Calle Martin Luther King","number":"39","postalCode":"28922","lat":40.3289202,"lon":-3.8234753},{"street":"Calle Martin Luther King","number":"37","postalCode":"28922","lat":40.3289197,"lon":-3.8235442},{"street":"Calle Martin Luther King","number":"35","postalCode":"28922","lat":40.3289192,"lon":-3.8236058},{"street":"Calle Martin Luther King","number":"33","postalCode":"28922","lat":40.3289188,"lon":-3.8236695},{"street":"Calle Derechos Civiles","number":"2","postalCode":"28922","lat":40.3320911,"lon":-3.8228835},{"street":"Calle Pablo Picasso","number":"2,4","postalCode":"28922","lat":40.3303232,"lon":-3.8238139},{"street":"Calle Pablo Picasso","number":"6","postalCode":"28922","lat":40.3303248,"lon":-3.8235788},{"street":"Calle Pablo Picasso","number":"8","postalCode":"28922","lat":40.3303256,"lon":-3.8234761},{"street":"Calle Pablo Picasso","number":"10","postalCode":"28922","lat":40.330326,"lon":-3.8234099},{"street":"Calle Pablo Picasso","number":"12","postalCode":"28922","lat":40.3303265,"lon":-3.823345},{"street":"Calle Pablo Picasso","number":"14","postalCode":"28922","lat":40.3303271,"lon":-3.8232624},{"street":"Calle Pablo Picasso","number":"16","postalCode":"28922","lat":40.3303275,"lon":-3.8232},{"street":"Calle Pablo Picasso","number":"18","postalCode":"28922","lat":40.330328,"lon":-3.8231353},{"street":"Calle Pablo Picasso","number":"20","postalCode":"28922","lat":40.3303285,"lon":-3.8230698},{"street":"Calle Pablo Picasso","number":"22","postalCode":"28922","lat":40.3303289,"lon":-3.8230136},{"street":"Calle Pablo Picasso","number":"24","postalCode":"28922","lat":40.3303294,"lon":-3.8229455},{"street":"Calle Pablo Picasso","number":"26","postalCode":"28922","lat":40.3303306,"lon":-3.822769},{"street":"Calle Pablo Picasso","number":"28","postalCode":"28922","lat":40.3303329,"lon":-3.822447},{"street":"Calle Pablo Picasso","number":"30","postalCode":"28922","lat":40.3303334,"lon":-3.8223714},{"street":"Calle Pablo Picasso","number":"34","postalCode":"28922","lat":40.3303345,"lon":-3.8222176},{"street":"Calle Pablo Picasso","number":"36","postalCode":"28922","lat":40.3303352,"lon":-3.8221238},{"street":"Calle Pablo Picasso","number":"38","postalCode":"28922","lat":40.330336,"lon":-3.8220153},{"street":"Calle Pablo Picasso","number":"40","postalCode":"28922","lat":40.3303367,"lon":-3.8219065},{"street":"Calle Pablo Picasso","number":"63","postalCode":"28922","lat":40.3307826,"lon":-3.8219183},{"street":"Calle Pablo Picasso","number":"61","postalCode":"28922","lat":40.3307818,"lon":-3.8220345},{"street":"Calle Pablo Picasso","number":"59","postalCode":"28922","lat":40.3307811,"lon":-3.8221346},{"street":"Calle Pablo Picasso","number":"57","postalCode":"28922","lat":40.3307804,"lon":-3.822227},{"street":"Calle Pablo Picasso","number":"55","postalCode":"28922","lat":40.3307798,"lon":-3.8223112},{"street":"Calle Pablo Picasso","number":"53","postalCode":"28922","lat":40.3307793,"lon":-3.8223839},{"street":"Calle Pablo Picasso","number":"51","postalCode":"28922","lat":40.3307788,"lon":-3.8224559},{"street":"Calle Pablo Picasso","number":"49","postalCode":"28922","lat":40.3307783,"lon":-3.8225243},{"street":"Calle Pablo Picasso","number":"47","postalCode":"28922","lat":40.3307778,"lon":-3.8225996},{"street":"Calle Pablo Picasso","number":"45","postalCode":"28922","lat":40.3307772,"lon":-3.8226741},{"street":"Calle Pablo Picasso","number":"43","postalCode":"28922","lat":40.3307767,"lon":-3.8227542},{"street":"Calle Pablo Picasso","number":"41","postalCode":"28922","lat":40.3307761,"lon":-3.8228281},{"street":"Calle Pablo Picasso","number":"39","postalCode":"28922","lat":40.3307756,"lon":-3.8228989},{"street":"Calle Pablo Picasso","number":"37","postalCode":"28922","lat":40.3307751,"lon":-3.8229731},{"street":"Calle Pablo Picasso","number":"35","postalCode":"28922","lat":40.3307746,"lon":-3.8230448},{"street":"Calle Pablo Picasso","number":"33","postalCode":"28922","lat":40.3307741,"lon":-3.8231158},{"street":"Calle Pablo Picasso","number":"31","postalCode":"28922","lat":40.3307736,"lon":-3.8231917},{"street":"Calle Pablo Picasso","number":"29","postalCode":"28922","lat":40.330773,"lon":-3.8232666},{"street":"Calle Pablo Picasso","number":"27","postalCode":"28922","lat":40.3307724,"lon":-3.8233606},{"street":"Calle Pablo Picasso","number":"25","postalCode":"28922","lat":40.3307716,"lon":-3.823471},{"street":"Calle Pablo Picasso","number":"23","postalCode":"28922","lat":40.3307708,"lon":-3.8235778},{"street":"Calle Pablo Picasso","number":"21","postalCode":"28922","lat":40.33077,"lon":-3.8236883},{"street":"Calle Pablo Picasso","number":"19","postalCode":"28922","lat":40.3307691,"lon":-3.8238223},{"street":"Calle Pablo Picasso","number":"1","postalCode":"28922","lat":40.3314154,"lon":-3.8228854},{"street":"Calle Cáceres","number":"27","postalCode":"28922","lat":40.3441735,"lon":-3.8331096},{"street":"Calle Alegria la;Calle de la Alegría","number":"1","postalCode":"28925","lat":40.3542957,"lon":-3.8005995},{"street":"Calle Alegria la;Calle de la Alegría","number":"3","postalCode":"28925","lat":40.3540541,"lon":-3.8001996},{"street":"Calle Alegria la;Calle de la Alegría","number":"8","postalCode":"28925","lat":40.3544098,"lon":-3.7998541},{"street":"Calle Adelfas","number":"5","postalCode":"28925","lat":40.3522145,"lon":-3.8002799},{"street":"Calle Adelfas","number":"3","postalCode":"28925","lat":40.3520093,"lon":-3.800491},{"street":"Calle Adelfas","number":"2d","postalCode":"28925","lat":40.3530784,"lon":-3.8006778},{"street":"Calle Adelfas","number":"2c","postalCode":"28925","lat":40.3528958,"lon":-3.8008658},{"street":"Calle Adelfas","number":"2b","postalCode":"28925","lat":40.3527403,"lon":-3.8010259},{"street":"Calle Adelfas","number":"2a","postalCode":"28925","lat":40.3524944,"lon":-3.8012789},{"street":"Avenida Flores las","number":"132","postalCode":"28925","lat":40.3529258,"lon":-3.7996687},{"street":"Avenida de las Flores","number":"128","postalCode":"28925","lat":40.3532266,"lon":-3.8001682},{"street":"Avenida Flores las","number":"130","postalCode":"28925","lat":40.3530206,"lon":-3.7998261},{"street":"Avenida de las Flores","number":"126","postalCode":"28925","lat":40.3532986,"lon":-3.8002877},{"street":"Calle Lirios los","number":"19","postalCode":"28925","lat":40.3527579,"lon":-3.801911},{"street":"Avenida Flores las","number":"79","postalCode":"28925","lat":40.3544968,"lon":-3.801846},{"street":"Avenida Flores las","number":"81","postalCode":"28925","lat":40.354236,"lon":-3.8015308},{"street":"Avenida de las Flores","number":"91","postalCode":"28925","lat":40.3532176,"lon":-3.799843},{"street":"Calle Adelfas","number":"10","postalCode":"28925","lat":40.3537188,"lon":-3.7997396},{"street":"Calle Adelfas","number":"4","postalCode":"28925","lat":40.353599,"lon":-3.8001993},{"street":"Avenida Flores las;Avenida de las Flores","number":"83","postalCode":"28925","lat":40.3539776,"lon":-3.8010964},{"street":"Avenida Flores las;Avenida de las Flores","number":"85","postalCode":"28925","lat":40.3538745,"lon":-3.8009259},{"street":"Avenida Flores las","number":"8","postalCode":"28925","lat":40.3539818,"lon":-3.8001818},{"street":"Avenida Flores las","number":"6","postalCode":"28925","lat":40.3540422,"lon":-3.800282},{"street":"Avenida Flores las","number":"4","postalCode":"28925","lat":40.3542224,"lon":-3.8005804},{"street":"Avenida Flores las","number":"2","postalCode":"28925","lat":40.3543251,"lon":-3.8007506},{"street":"Calle Alegria la","number":"4","postalCode":"28925","lat":40.3548805,"lon":-3.8006319},{"street":"Calle Alegria la","number":"2","postalCode":"28925","lat":40.3550382,"lon":-3.8008982},{"street":"Calle Adelfas","number":"7","postalCode":"28925","lat":40.3536186,"lon":-3.79948},{"street":"Calle Adelfas","number":"11","postalCode":"28925","lat":40.3536506,"lon":-3.798801},{"street":"Calle Adelfas","number":"8","postalCode":"28925","lat":40.3540472,"lon":-3.799739},{"street":"Calle Referendum de Viña Grande","number":"2","postalCode":"28925","lat":40.3503546,"lon":-3.8033335},{"street":"Calle Referendum de Viña Grande","number":"10","postalCode":"28925","lat":40.3499665,"lon":-3.8027017},{"street":"Calle Referendum de Viña Grande","number":"8","postalCode":"28925","lat":40.3500707,"lon":-3.8028712},{"street":"Calle Referendum de Viña Grande","number":"6","postalCode":"28925","lat":40.35017,"lon":-3.8030331},{"street":"Calle Referendum de Viña Grande","number":"4","postalCode":"28925","lat":40.3502676,"lon":-3.8031918},{"street":"Calle Referendum de Viña Grande","number":"18","postalCode":"28925","lat":40.3508269,"lon":-3.802153},{"street":"Calle Referendum de Viña Grande","number":"24","postalCode":"28925","lat":40.3511529,"lon":-3.801698},{"street":"Calle Referendum de Viña Grande","number":"26","postalCode":"28925","lat":40.3512756,"lon":-3.8015693},{"street":"Calle Referendum de Viña Grande","number":"12","postalCode":"28925","lat":40.3504715,"lon":-3.8025255},{"street":"Calle Referendum de Viña Grande","number":"14","postalCode":"28925","lat":40.3505742,"lon":-3.8024178},{"street":"Calle Referendum de Viña Grande","number":"16","postalCode":"28925","lat":40.3507032,"lon":-3.8022826},{"street":"Calle Referendum de Viña Grande","number":"20","postalCode":"28925","lat":40.3509489,"lon":-3.8020251},{"street":"Calle Referendum de Viña Grande","number":"28","postalCode":"28925","lat":40.3514,"lon":-3.8014389},{"street":"Calle Referendum de Viña Grande","number":"22","postalCode":"28925","lat":40.351072,"lon":-3.801896},{"street":"Calle Referendum de Viña Grande","number":"30","postalCode":"28925","lat":40.3515144,"lon":-3.801319},{"street":"Calle Referendum de Viña Grande","number":"3","postalCode":"28925","lat":40.3510237,"lon":-3.8022239},{"street":"Calle Referendum de Viña Grande","number":"7","postalCode":"28925","lat":40.351704,"lon":-3.8021428},{"street":"Calle Referendum de Viña Grande","number":"9","postalCode":"28925","lat":40.3519895,"lon":-3.8018452},{"street":"Calle Referendum de Viña Grande","number":"11","postalCode":"28925","lat":40.352183,"lon":-3.8016436},{"street":"Calle Referendum de Viña Grande","number":"1","postalCode":"28925","lat":40.3504292,"lon":-3.802841},{"street":"Avenida Castillos los","number":"13 D","postalCode":"28925","lat":40.3503086,"lon":-3.8043577},{"street":"Calle de los Lirios","number":"1","postalCode":"28925","lat":40.3517068,"lon":-3.8030677},{"street":"Calle de los Lirios","number":"2","postalCode":"28925","lat":40.3527482,"lon":-3.8022589},{"street":"Calle de los Lirios","number":"3","postalCode":"28925","lat":40.351897,"lon":-3.8021625},{"street":"Calle de los Lirios","number":"10","postalCode":"28925","lat":40.3521964,"lon":-3.8030287},{"street":"Calle de los Lirios","number":"8","postalCode":"28925","lat":40.351992,"lon":-3.8032399},{"street":"Calle de los Lirios","number":"12","postalCode":"28925","lat":40.3524072,"lon":-3.802811},{"street":"Avenida Castillos los","number":"15","postalCode":"28925","lat":40.3505807,"lon":-3.8040713},{"street":"Calle Gardenias las","number":"1","postalCode":"28925","lat":40.3514026,"lon":-3.8041631},{"street":"Calle Gardenias las","number":"21","postalCode":"28925","lat":40.3528945,"lon":-3.8037944},{"street":"Avenida de las Flores","number":"132","postalCode":"28925","lat":40.3529258,"lon":-3.7996687},{"street":"Avenida de las Flores","number":"130","postalCode":"28925","lat":40.3530206,"lon":-3.7998261},{"street":"Calle de los Lirios","number":"19","postalCode":"28925","lat":40.3527558,"lon":-3.8019075},{"street":"Avenida de las Flores","number":"79","postalCode":"28925","lat":40.3544968,"lon":-3.801846},{"street":"Avenida de las Flores","number":"81","postalCode":"28925","lat":40.354236,"lon":-3.8015308},{"street":"Avenida de las Flores","number":"87","postalCode":"28925","lat":40.3537208,"lon":-3.8006718},{"street":"Avenida de las Flores","number":"89","postalCode":"28925","lat":40.3536171,"lon":-3.8005003},